,index,serial_number,activity_date,facility_name,score,grade,service_code,service_description,employee_id,facility_address,facility_city,facility_id,facility_state,facility_zip,owner_id,owner_name,pe_description,program_element_pe,program_name,program_status,record_id,food_type,in_business,latitude,longitude,price,rating,review_count,yelp_id
0,615,DAXYYDDY7,05/03/2016 12:00:00 AM,MAPO RESTAURANT,90,A,1,ROUTINE INSPECTION,EE0000699,3611 S 6TH ST,LOS ANGELES,FA0038474,CA,90020,OW0021290,"LEE, KYOUNG SUN",RESTAURANT (31-60) SEATS HIGH RISK,1635,MAPO RESTAURANT,ACTIVE,PR0041247,"['Korean', 'Comfort Food', 'Soup']",False,34.0636387467384,-118.300722241402,$$,4.0,258,EQ4Slz2LL8WdcbDT1ng1zQ
1,616,DAFJQNJ2T,05/03/2016 12:00:00 AM,FAT SAL'S,90,A,1,ROUTINE INSPECTION,EE0000911,972 GAYLEY AVE,LOS ANGELES,FA0022718,CA,90024,OW0035574,"THE GAYLEY GROUP, LP",RESTAURANT (0-30) SEATS HIGH RISK,1632,FAT SAL'S,ACTIVE,PR0047310,"['Delis', 'American (New)', 'Burgers']",False,34.0625164548532,-118.448010678225,$$,4.0,1064,txH67ORSC9m_3F_ZVqoXwg
2,617,DAWL55WKF,05/03/2016 12:00:00 AM,ZWEET CAFE,95,A,1,ROUTINE INSPECTION,EE0000746,4682 EAGLE ROCK BLVD,LOS ANGELES,FA0177854,CA,90041,OW0183748,ZWEET CAFE INC,RESTAURANT (0-30) SEATS MODERATE RISK,1631,ZWEET CAFE,ACTIVE,PR0170925,"['Coffee & Tea', 'Cafes', 'Breakfast & Brunch']",False,34.12974,-118.21645,$,4.5,355,9yB5H8MwuQ3MBMlq5EOoFw
3,619,DAKWTS904,05/03/2016 12:00:00 AM,GUS'S DRIVE-IN,93,A,1,ROUTINE INSPECTION,EE0000723,1657 W 3RD ST,LOS ANGELES,FA0027218,CA,90017,OW0020507,LA VANTZAS,RESTAURANT (31-60) SEATS HIGH RISK,1635,GUS'S DRIVE-IN,ACTIVE,PR0046346,"['American (Traditional)', 'Mediterranean', 'Greek']",False,34.06081,-118.26734,$,3.5,325,J5VIIA_KdB33zQR8vgo5MA
4,620,DA6AVFSGX,05/03/2016 12:00:00 AM,LA CONVENTION CENTER,97,A,1,ROUTINE INSPECTION,EE0000633,1201 S FIGUEROA ST,LOS ANGELES,FA0156500,CA,90015,OW0121804,LEVY PREMIUM FOOD SERVICE LP,RESTAURANT (0-30) SEATS MODERATE RISK,1631,STAND C,INACTIVE,PR0151554,"['Venues & Event Spaces', 'Party & Event Planning']",False,34.040329,-118.269562,blank,3.5,334,wFxDli2tlPCRbPU42S-o1g
5,620,DA6AVFSGX,05/03/2016 12:00:00 AM,LA CONVENTION CENTER,97,A,1,ROUTINE INSPECTION,EE0000633,1201 S FIGUEROA ST,LOS ANGELES,FA0156500,CA,90015,OW0121804,LEVY PREMIUM FOOD SERVICE LP,RESTAURANT (0-30) SEATS MODERATE RISK,1631,STAND C,INACTIVE,PR0151554,"['Venues & Event Spaces', 'Party & Event Planning']",False,34.040329,-118.269562,blank,3.5,334,wFxDli2tlPCRbPU42S-o1g
6,622,DAZUNVIFH,05/03/2016 12:00:00 AM,LA CONVENTION CENTER,97,A,1,ROUTINE INSPECTION,EE0000633,1201 S FIGUEROA ST,LOS ANGELES,FA0156500,CA,90015,OW0121804,LEVY PREMIUM FOOD SERVICE LP,RESTAURANT (0-30) SEATS MODERATE RISK,1631,STAND B LACC,INACTIVE,PR0144173,"['Venues & Event Spaces', 'Party & Event Planning']",False,34.040329,-118.269562,blank,3.5,334,wFxDli2tlPCRbPU42S-o1g
7,622,DAZUNVIFH,05/03/2016 12:00:00 AM,LA CONVENTION CENTER,97,A,1,ROUTINE INSPECTION,EE0000633,1201 S FIGUEROA ST,LOS ANGELES,FA0156500,CA,90015,OW0121804,LEVY PREMIUM FOOD SERVICE LP,RESTAURANT (0-30) SEATS MODERATE RISK,1631,STAND B LACC,INACTIVE,PR0144173,"['Venues & Event Spaces', 'Party & Event Planning']",False,34.040329,-118.269562,blank,3.5,334,wFxDli2tlPCRbPU42S-o1g
8,658,DAM6Q0IQT,05/03/2016 12:00:00 AM,LA CONVENTION CENTER,97,A,1,ROUTINE INSPECTION,EE0000633,1201 S FIGUEROA ST,LOS ANGELES,FA0156500,CA,90015,OW0121804,LEVY PREMIUM FOOD SERVICE LP,RESTAURANT (151 + ) SEATS MODERATE RISK,1640,LA CONVENTION CENTER TRADEWINDS CAFE,ACTIVE,PR0144171,"['Venues & Event Spaces', 'Party & Event Planning']",False,34.040329,-118.269562,blank,3.5,334,wFxDli2tlPCRbPU42S-o1g
9,658,DAM6Q0IQT,05/03/2016 12:00:00 AM,LA CONVENTION CENTER,97,A,1,ROUTINE INSPECTION,EE0000633,1201 S FIGUEROA ST,LOS ANGELES,FA0156500,CA,90015,OW0121804,LEVY PREMIUM FOOD SERVICE LP,RESTAURANT (151 + ) SEATS MODERATE RISK,1640,LA CONVENTION CENTER TRADEWINDS CAFE,ACTIVE,PR0144171,"['Venues & Event Spaces', 'Party & Event Planning']",False,34.040329,-118.269562,blank,3.5,334,wFxDli2tlPCRbPU42S-o1g
10,662,DA5FIY0TX,05/03/2016 12:00:00 AM,LA CONVENTION CENTER,97,A,1,ROUTINE INSPECTION,EE0000633,1201 S FIGUEROA ST,LOS ANGELES,FA0156500,CA,90015,OW0121804,LEVY PREMIUM FOOD SERVICE LP,RESTAURANT (0-30) SEATS MODERATE RISK,1631,LA CONVENTION CENTER STAND 6,ACTIVE,PR0144172,"['Venues & Event Spaces', 'Party & Event Planning']",False,34.040329,-118.269562,blank,3.5,334,wFxDli2tlPCRbPU42S-o1g
11,662,DA5FIY0TX,05/03/2016 12:00:00 AM,LA CONVENTION CENTER,97,A,1,ROUTINE INSPECTION,EE0000633,1201 S FIGUEROA ST,LOS ANGELES,FA0156500,CA,90015,OW0121804,LEVY PREMIUM FOOD SERVICE LP,RESTAURANT (0-30) SEATS MODERATE RISK,1631,LA CONVENTION CENTER STAND 6,ACTIVE,PR0144172,"['Venues & Event Spaces', 'Party & Event Planning']",False,34.040329,-118.269562,blank,3.5,334,wFxDli2tlPCRbPU42S-o1g
12,667,DA2ZVKE7G,05/03/2016 12:00:00 AM,LA CONVENTION CENTER,100,A,1,ROUTINE INSPECTION,EE0000633,1201 S FIGUEROA ST,LOS ANGELES,FA0156500,CA,90015,OW0121804,LEVY PREMIUM FOOD SERVICE LP,RESTAURANT (0-30) SEATS MODERATE RISK,1631,LA CONVENTION CENTER STAND D - COMMISSARY FOR MSU,ACTIVE,PR0151551,"['Venues & Event Spaces', 'Party & Event Planning']",False,34.040329,-118.269562,blank,3.5,334,wFxDli2tlPCRbPU42S-o1g
13,667,DA2ZVKE7G,05/03/2016 12:00:00 AM,LA CONVENTION CENTER,100,A,1,ROUTINE INSPECTION,EE0000633,1201 S FIGUEROA ST,LOS ANGELES,FA0156500,CA,90015,OW0121804,LEVY PREMIUM FOOD SERVICE LP,RESTAURANT (0-30) SEATS MODERATE RISK,1631,LA CONVENTION CENTER STAND D - COMMISSARY FOR MSU,ACTIVE,PR0151551,"['Venues & Event Spaces', 'Party & Event Planning']",False,34.040329,-118.269562,blank,3.5,334,wFxDli2tlPCRbPU42S-o1g
14,836,DALGSLZLN,04/28/2016 12:00:00 AM,LA CONVENTION CENTER,96,A,1,ROUTINE INSPECTION,EE0000633,1201 S FIGUEROA ST,LOS ANGELES,FA0156500,CA,90015,OW0121804,LEVY PREMIUM FOOD SERVICE LP,RESTAURANT (0-30) SEATS MODERATE RISK,1631,LA CONVENTION CENTER STAND 1,ACTIVE,PR0151553,"['Venues & Event Spaces', 'Party & Event Planning']",False,34.040329,-118.269562,blank,3.5,334,wFxDli2tlPCRbPU42S-o1g
15,836,DALGSLZLN,04/28/2016 12:00:00 AM,LA CONVENTION CENTER,96,A,1,ROUTINE INSPECTION,EE0000633,1201 S FIGUEROA ST,LOS ANGELES,FA0156500,CA,90015,OW0121804,LEVY PREMIUM FOOD SERVICE LP,RESTAURANT (0-30) SEATS MODERATE RISK,1631,LA CONVENTION CENTER STAND 1,ACTIVE,PR0151553,"['Venues & Event Spaces', 'Party & Event Planning']",False,34.040329,-118.269562,blank,3.5,334,wFxDli2tlPCRbPU42S-o1g
16,837,DAPTA9NAY,04/28/2016 12:00:00 AM,LA CONVENTION CENTER,96,A,1,ROUTINE INSPECTION,EE0000633,1201 S FIGUEROA ST,LOS ANGELES,FA0156500,CA,90015,OW0121804,LEVY PREMIUM FOOD SERVICE LP,RESTAURANT (0-30) SEATS MODERATE RISK,1631,LA CONVENTION CENTER STAND 5 LACC,ACTIVE,PR0144169,"['Venues & Event Spaces', 'Party & Event Planning']",False,34.040329,-118.269562,blank,3.5,334,wFxDli2tlPCRbPU42S-o1g
17,837,DAPTA9NAY,04/28/2016 12:00:00 AM,LA CONVENTION CENTER,96,A,1,ROUTINE INSPECTION,EE0000633,1201 S FIGUEROA ST,LOS ANGELES,FA0156500,CA,90015,OW0121804,LEVY PREMIUM FOOD SERVICE LP,RESTAURANT (0-30) SEATS MODERATE RISK,1631,LA CONVENTION CENTER STAND 5 LACC,ACTIVE,PR0144169,"['Venues & Event Spaces', 'Party & Event Planning']",False,34.040329,-118.269562,blank,3.5,334,wFxDli2tlPCRbPU42S-o1g
18,838,DAX3KITZA,04/28/2016 12:00:00 AM,LA CONVENTION CENTER,97,A,1,ROUTINE INSPECTION,EE0000633,1201 S FIGUEROA ST,LOS ANGELES,FA0156500,CA,90015,OW0121804,LEVY PREMIUM FOOD SERVICE LP,RESTAURANT (151 + ) SEATS HIGH RISK,1641,LA CONVENTION CENTER COMPASS CAFE,ACTIVE,PR0151559,"['Venues & Event Spaces', 'Party & Event Planning']",False,34.040329,-118.269562,blank,3.5,334,wFxDli2tlPCRbPU42S-o1g
19,838,DAX3KITZA,04/28/2016 12:00:00 AM,LA CONVENTION CENTER,97,A,1,ROUTINE INSPECTION,EE0000633,1201 S FIGUEROA ST,LOS ANGELES,FA0156500,CA,90015,OW0121804,LEVY PREMIUM FOOD SERVICE LP,RESTAURANT (151 + ) SEATS HIGH RISK,1641,LA CONVENTION CENTER COMPASS CAFE,ACTIVE,PR0151559,"['Venues & Event Spaces', 'Party & Event Planning']",False,34.040329,-118.269562,blank,3.5,334,wFxDli2tlPCRbPU42S-o1g
20,839,DAGTSFCIK,04/28/2016 12:00:00 AM,LA CONVENTION CENTER,97,A,1,ROUTINE INSPECTION,EE0000633,1201 S FIGUEROA ST,LOS ANGELES,FA0156500,CA,90015,OW0121804,LEVY PREMIUM FOOD SERVICE LP,RESTAURANT (151 + ) SEATS HIGH RISK,1641,LA CONVENTION CENTER GALAXY RESTAURANT - LACC,ACTIVE,PR0143275,"['Venues & Event Spaces', 'Party & Event Planning']",False,34.040329,-118.269562,blank,3.5,334,wFxDli2tlPCRbPU42S-o1g
21,839,DAGTSFCIK,04/28/2016 12:00:00 AM,LA CONVENTION CENTER,97,A,1,ROUTINE INSPECTION,EE0000633,1201 S FIGUEROA ST,LOS ANGELES,FA0156500,CA,90015,OW0121804,LEVY PREMIUM FOOD SERVICE LP,RESTAURANT (151 + ) SEATS HIGH RISK,1641,LA CONVENTION CENTER GALAXY RESTAURANT - LACC,ACTIVE,PR0143275,"['Venues & Event Spaces', 'Party & Event Planning']",False,34.040329,-118.269562,blank,3.5,334,wFxDli2tlPCRbPU42S-o1g
22,840,DAEMRNPEC,04/28/2016 12:00:00 AM,LA CONVENTION CENTER,97,A,1,ROUTINE INSPECTION,EE0000633,1201 S FIGUEROA ST,LOS ANGELES,FA0156500,CA,90015,OW0121804,LEVY PREMIUM FOOD SERVICE LP,RESTAURANT (0-30) SEATS MODERATE RISK,1631,LA CONVENTION CENTER STAND 3,ACTIVE,PR0151549,"['Venues & Event Spaces', 'Party & Event Planning']",False,34.040329,-118.269562,blank,3.5,334,wFxDli2tlPCRbPU42S-o1g
23,840,DAEMRNPEC,04/28/2016 12:00:00 AM,LA CONVENTION CENTER,97,A,1,ROUTINE INSPECTION,EE0000633,1201 S FIGUEROA ST,LOS ANGELES,FA0156500,CA,90015,OW0121804,LEVY PREMIUM FOOD SERVICE LP,RESTAURANT (0-30) SEATS MODERATE RISK,1631,LA CONVENTION CENTER STAND 3,ACTIVE,PR0151549,"['Venues & Event Spaces', 'Party & Event Planning']",False,34.040329,-118.269562,blank,3.5,334,wFxDli2tlPCRbPU42S-o1g
24,940,DAJXXL3FP,04/27/2016 12:00:00 AM,LA CONVENTION CENTER,92,A,1,ROUTINE INSPECTION,EE0000633,1201 S FIGUEROA ST,LOS ANGELES,FA0156500,CA,90015,OW0121804,LEVY PREMIUM FOOD SERVICE LP,RESTAURANT (151 + ) SEATS HIGH RISK,1641,LA CONVENTION CENTER MAIN KITCHEN - LACC,ACTIVE,PR0143277,"['Venues & Event Spaces', 'Party & Event Planning']",False,34.040329,-118.269562,blank,3.5,334,wFxDli2tlPCRbPU42S-o1g
25,940,DAJXXL3FP,04/27/2016 12:00:00 AM,LA CONVENTION CENTER,92,A,1,ROUTINE INSPECTION,EE0000633,1201 S FIGUEROA ST,LOS ANGELES,FA0156500,CA,90015,OW0121804,LEVY PREMIUM FOOD SERVICE LP,RESTAURANT (151 + ) SEATS HIGH RISK,1641,LA CONVENTION CENTER MAIN KITCHEN - LACC,ACTIVE,PR0143277,"['Venues & Event Spaces', 'Party & Event Planning']",False,34.040329,-118.269562,blank,3.5,334,wFxDli2tlPCRbPU42S-o1g
26,621,DAGCD8ZJW,05/03/2016 12:00:00 AM,NAMSAN RESTAURANT,94,A,1,ROUTINE INSPECTION,EE0000699,3613 W 6TH ST # #B,LOS ANGELES,FA0041140,CA,90020,OW0025586,NAMSAN INVESTMENT GROUP CORP,RESTAURANT (31-60) SEATS HIGH RISK,1635,NAMSAN RESTAURANT,INACTIVE,PR0043204,['Korean'],False,34.0637476225821,-118.300882511115,$$,3.0,152,eGQbImzV0mTyBL8z74Qxgg
27,623,DA85QXLRK,05/03/2016 12:00:00 AM,VERNETTI,91,A,1,ROUTINE INSPECTION,EE0000828,225 1/2 N LARCHMONT BLVD,LOS ANGELES,FA0172354,CA,90004,OW0179384,GIRASOLE INC,RESTAURANT (31-60) SEATS HIGH RISK,1635,VERNETTI,ACTIVE,PR0164899,"['Italian', 'Breakfast & Brunch']",False,34.07534,-118.32399,$$,4.0,248,TNkfaiMFw1e6dKWxTtGJHw
28,624,DA00ID4BX,05/03/2016 12:00:00 AM,NEW YORK BAGEL CO,90,A,401,OWNER INITIATED ROUTINE INSPECT.,EE0000727,11640 SAN VICENTE BLVD STE #111,LOS ANGELES,FA0042387,CA,90049,OW0035209,"TEDRA, INC",RESTAURANT (31-60) SEATS HIGH RISK,1635,NEW YORK BAGEL CO,ACTIVE,PR0002766,"['Bagels', 'Breakfast & Brunch']",False,34.0535125732422,-118.463150024414,$$,4.0,195,ckdA2ZfBEttCiz9hGXpUwg
29,1223,DAQRTFCTM,04/21/2016 12:00:00 AM,NEW YORK BAGEL CO,81,B,1,ROUTINE INSPECTION,EE0000727,11640 SAN VICENTE BLVD STE #111,LOS ANGELES,FA0042387,CA,90049,OW0035209,"TEDRA, INC",RESTAURANT (31-60) SEATS HIGH RISK,1635,NEW YORK BAGEL CO,ACTIVE,PR0002766,"['Bagels', 'Breakfast & Brunch']",False,34.0535125732422,-118.463150024414,$$,4.0,195,ckdA2ZfBEttCiz9hGXpUwg
30,625,DAT9E8LQL,05/03/2016 12:00:00 AM,THANK U PHO,92,A,1,ROUTINE INSPECTION,EE0000854,3522 W 8TH ST #B,LOS ANGELES,FA0166492,CA,90005,OW0129633,JUNG WOON KIM,RESTAURANT (31-60) SEATS HIGH RISK,1635,THANK U PHO,ACTIVE,PR0156804,['Vietnamese'],False,34.0572728932769,-118.307640589179,$,4.0,496,bntaaduchQQiBI7Dt12Pgw
31,626,DAIQGXRJK,05/03/2016 12:00:00 AM,CANDILEJAS CAFE,94,A,1,ROUTINE INSPECTION,EE0000740,3425 E 1ST ST STE 104B,LOS ANGELES,FA0007274,CA,90033,OW0006532,"CASTRO, GREGORIAN",RESTAURANT (0-30) SEATS MODERATE RISK,1631,CANDILEJAS CAFE,ACTIVE,PR0028761,['Cafes'],False,34.03731,-118.1937,blank,5.0,1,5xRuzE42IHAwVTV2IfbesA
32,627,DACP04OIN,05/03/2016 12:00:00 AM,WABA GRILL,96,A,1,ROUTINE INSPECTION,EE0000854,650 S WESTERN AVE,LOS ANGELES,FA0222760,CA,90005,OW0227554,SM CHO INC,RESTAURANT (31-60) SEATS HIGH RISK,1635,WABA GRILL,ACTIVE,PR0177797,"['Fast Food', 'Asian Fusion']",False,34.0610609413602,-118.308965116452,$,3.5,39,OfmoWiPU-pa7bJNlhHU0VQ
33,628,DATM7KRBC,05/03/2016 12:00:00 AM,YUM YUM DONUTS #1,90,A,1,ROUTINE INSPECTION,EE0000923,2633 N FIGUEROA ST,LOS ANGELES,FA0055812,CA,90065,OW0040037,YUM YUM DONUT SHOPS INC.,RESTAURANT (0-30) SEATS MODERATE RISK,1631,YUM YUM DONUTS #1,ACTIVE,PR0036355,['Donuts'],False,34.0845412015915,-118.221597746015,$,2.5,15,aiz0w6UKsoOfWiZT4a-qGQ
34,629,DAWLYL9BJ,05/03/2016 12:00:00 AM,ALTA CALIFORNIA FONDA,91,A,1,ROUTINE INSPECTION,EE0000871,5303 W PICO BLVD,LOS ANGELES,FA0156839,CA,90019,OW0122074,REYNALDO ESQUIVEL,RESTAURANT (31-60) SEATS HIGH RISK,1635,ALTA CALIFORNIA FONDA,ACTIVE,PR0144509,['Mexican'],True,34.04859,-118.35385,$$,4.0,184,WpCJnpDvZv3-AIRe89GhOA
35,630,DAIZNP6IN,05/03/2016 12:00:00 AM,DELLA TERRA,94,A,1,ROUTINE INSPECTION,EE0000726,7675 BEVERLY BLVD,LOS ANGELES,FA0018641,CA,90036,OW0021558,LEOPARDO INC.,RESTAURANT (61-150) SEATS HIGH RISK,1638,DELLA TERRA,ACTIVE,PR0024201,"['Italian', 'Wine Bars', 'Pizza']",False,34.0762749,-118.3571066,$$,4.0,524,YTTCdnu8457jbdEbm_PIig
36,631,DATF1IRGS,05/03/2016 12:00:00 AM,MIZU ZIZ SHABU SHABU,96,A,1,ROUTINE INSPECTION,EE0000684,2000 SAWTELLE BLVD,LOS ANGELES,FA0025261,CA,90025,OW0024668,MIZU RESTAURANT ENTERPRISE,RESTAURANT (0-30) SEATS HIGH RISK,1632,MIZU ZIZ SHABU SHABU,ACTIVE,PR0002447,"['Japanese', 'Hot Pot']",False,34.0409879964362,-118.443474060822,$$$,3.5,541,KyppDi1Hdg2G1F_No30Bpw
37,632,DADXYMOYR,05/03/2016 12:00:00 AM,SENORITA ABBY'S,96,A,1,ROUTINE INSPECTION,EE0000798,3751 S WESTERN AVE,LOS ANGELES,FA0222318,CA,90018,OW0227179,LILIAN ANAI TIBURCIO,RESTAURANT (0-30) SEATS HIGH RISK,1632,SENORITA ABBY'S,ACTIVE,PR0177319,['Seafood'],False,34.019306,-118.3090449,$,4.0,25,iGeC8aXn9z46rw0ZBBhhSg
38,633,DAHP5YF93,05/03/2016 12:00:00 AM,VEGAN HOUSE ON SUNSET,95,A,1,ROUTINE INSPECTION,EE0000923,2701 W SUNSET BLVD,LOS ANGELES,FA0222578,CA,90026,OW0227411,Y3K RESTAURANT GROUP,RESTAURANT (31-60) SEATS HIGH RISK,1635,VEGAN HOUSE ON SUNSET,INACTIVE,PR0177602,['Vegan'],True,34.08103,-118.27039,$,4.0,302,Vwzp8IVEdP3eif8tgRDxKA
39,634,DACSEZYAD,05/03/2016 12:00:00 AM,TOFU-YA,92,A,1,ROUTINE INSPECTION,EE0000684,2021 SAWTELLE BLVD,LOS ANGELES,FA0072661,CA,90025,OW0012078,"FOFU-YA, INC.",RESTAURANT (31-60) SEATS HIGH RISK,1635,TOFU-YA,INACTIVE,PR0026415,['Korean'],False,34.04016,-118.44338,$$,3.5,1030,cJQfLysSaYhvv3yueXdqGQ
40,635,DA0GD0CNU,05/03/2016 12:00:00 AM,LEELA THAI RESTAURANT,96,A,1,ROUTINE INSPECTION,EE0000904,1737 SILVER LAKE BLVD,LOS ANGELES,FA0179688,CA,90026,OW0185184,ONGART KUSOLPAISIT,RESTAURANT (31-60) SEATS HIGH RISK,1635,LEELA THAI RESTAURANT,ACTIVE,PR0173336,['Thai'],False,34.09026,-118.26783,$,3.5,331,gduRuH9PD1Uo8He45Z8bAA
41,636,DATKDRE1L,05/03/2016 12:00:00 AM,GOLDEN DRAGON,86,B,1,ROUTINE INSPECTION,EE0000740,960 N BROADWAY,LOS ANGELES,FA0062810,CA,90012,OW0039158,"WONG, KIM TOON PRES",RESTAURANT (151 + ) SEATS HIGH RISK,1641,GOLDEN DRAGON,ACTIVE,PR0031768,"['Dim Sum', 'Seafood', 'Cantonese']",False,34.0655097961426,-118.236274719238,$$,3.5,616,BRmZGc_0QFZKy_8287c7zA
42,638,DAKAEB4DX,05/03/2016 12:00:00 AM,NORTHGATE MARKET #41,91,A,1,ROUTINE INSPECTION,EE0000733,4700 INGLEWOOD BLVD,LOS ANGELES,FA0138230,CA,90230,OW0026268,NORTHGATE GONZALEZ LLC,RESTAURANT (0-30) SEATS HIGH RISK,1632,NORTHGATE MARKET #41 -  LA COCINA,ACTIVE,PR0122500,"['Grocery', 'Mexican']",False,33.9931028,-118.41498,$,4.0,104,hIRdV753wZnzTOJg5aIlBQ
43,639,DAVBDYG32,05/03/2016 12:00:00 AM,ROBEKS JUICE,93,A,1,ROUTINE INSPECTION,EE0000733,8905 S SEPULVEDA BLVD,LOS ANGELES,FA0045961,CA,90045,OW0015603,HIS GLORY CORPORATION,RESTAURANT (0-30) SEATS MODERATE RISK,1631,ROBEKS JUICE,INACTIVE,PR0047133,['Juice Bars & Smoothies'],False,33.95566,-118.3963549,$,4.0,104,hFI59E3zMtD6tHRIok_IJw
44,640,DAZFYVGIB,05/03/2016 12:00:00 AM,YUP DDUK LA,83,B,1,ROUTINE INSPECTION,EE0000699,3603 W 6TH ST,LOS ANGELES,FA0178345,CA,90020,OW0184111,"ALMG INVESTMENTS, LLC",RESTAURANT (151 + ) SEATS HIGH RISK,1641,YUP DDUK LA,ACTIVE,PR0171485,['Korean'],False,34.064009,-118.3007013,$$,4.5,1156,DrToq9357afdpOyO5w0Y5w
45,641,DASQFQNWR,05/03/2016 12:00:00 AM,IN-N-OUT BURGER #119,93,A,1,ROUTINE INSPECTION,EE0000911,922 GAYLEY AVE,LOS ANGELES,FA0017989,CA,90024,OW0016998,"IN-N-OUT BURGERS, INC.",RESTAURANT (61-150) SEATS MODERATE RISK,1637,IN N OUT BURGER #119,ACTIVE,PR0029696,"['Fast Food', 'Burgers']",False,34.0631012326944,-118.448130237507,$,4.0,660,tIIof6-zqlgxImFNDEIj9g
46,643,DADOXBOBY,05/03/2016 12:00:00 AM,TACO BRAVO,97,A,1,ROUTINE INSPECTION,EE0000721,1400 W PICO BLVD,LOS ANGELES,FA0050284,CA,90015,OW0026999,"OSORIO, SAUL",RESTAURANT (0-30) SEATS HIGH RISK,1632,TACO BRAVO,ACTIVE,PR0041772,['Mexican'],False,34.0431480407715,-118.274345397949,$,4.5,23,vaKz8-v2qPByFOoRAOuM_Q
47,644,DAABY9HUD,05/03/2016 12:00:00 AM,HAKATA RAMEN SHIN-SEN-GUMI,99,A,1,ROUTINE INSPECTION,EE0000684,1601 SAWTELLE BLVD #101,LOS ANGELES,FA0138566,CA,90025,OW0101908,"MITSUYASU, SHIGETA",RESTAURANT (31-60) SEATS HIGH RISK,1635,HAKATA RAMEN SHIN-SEN-GUMI,ACTIVE,PR0122902,"['Ramen', 'Tapas/Small Plates']",False,34.04683,-118.44912,$,4.0,967,umwJ_sHGuSU2p-CK3rQ8uA
48,645,DAKH2OHWG,05/03/2016 12:00:00 AM,VIM RESTAURANT,94,A,1,ROUTINE INSPECTION,EE0000857,5132 HOLLYWOOD BLVD,LOS ANGELES,FA0039883,CA,90027,OW0026188,"NOOCHLA, SUPAWADEE",RESTAURANT (61-150) SEATS HIGH RISK,1638,VIM RESTAURANT,ACTIVE,PR0015321,"['Thai', 'Chinese']",False,34.101642,-118.301684,$$,3.5,149,21TIwq-BTC8O1BRx4CESew
49,646,DAT428OXJ,05/03/2016 12:00:00 AM,EL POLLO LOCO #3785,98,A,1,ROUTINE INSPECTION,EE0000923,6009 N FIGUEROA ST,LOS ANGELES,FA0177221,CA,90042,OW0039093,WKS RESTAURANT CORP,RESTAURANT (61-150) SEATS HIGH RISK,1638,EL POLLO LOCO #3785,ACTIVE,PR0170185,"['Fast Food', 'Mexican']",False,34.11151,-118.18969,$,2.5,51,7iWMwVrZAs9YPCcr2LqjHg
50,649,DA6XYEBKU,05/03/2016 12:00:00 AM,YOGURTLAND,97,A,1,ROUTINE INSPECTION,EE0000162,5045 EAGLE  ROCK BLVD,LOS ANGELES,FA0167116,CA,90041,OW0099676,"SO CAL FROZEN TREATS, LLC.",RESTAURANT (0-30) SEATS MODERATE RISK,1631,YOGURTLAND,ACTIVE,PR0157463,['Ice Cream & Frozen Yogurt'],False,34.13842,-118.21471,$,3.0,48,62_wNXeK8y3dMIhSJ2gXrg
51,650,DADHJPRBF,05/03/2016 12:00:00 AM,CASITAS DEL CAMPO,94,A,1,ROUTINE INSPECTION,EE0000904,1920 HYPERION AVE,LOS ANGELES,FA0013765,CA,90027,OW0009631,"DEL CAMPO, NINA",RESTAURANT (151 + ) SEATS HIGH RISK,1641,CASITAS DEL CAMPO,ACTIVE,PR0036787,"['Mexican', 'Seafood', 'Bars']",False,34.09745,-118.27499,$$,3.5,541,RdLz9GVW48pu2XmhrMsLUg
52,651,DAAJ0ZPSY,05/03/2016 12:00:00 AM,LA AZTECA,96,A,1,ROUTINE INSPECTION,EE0000697,4203 CHEVY CHASE DR,LOS ANGELES,FA0020481,CA,90039,OW0029575,"RAMIREZ, MARIA DE JESUS",RESTAURANT (0-30) SEATS HIGH RISK,1632,LA AZTECA,ACTIVE,PR0005811,['Mexican'],False,34.1335549,-118.2659517,$,4.0,51,x7k1MbMu6akN0oZK1MUvTw
53,652,DAK9PGCQ2,05/03/2016 12:00:00 AM,LITTLE CAESAR'S #5737,95,A,1,ROUTINE INSPECTION,EE0000946,100 S VERMONT AVE,LOS ANGELES,FA0022225,CA,90004,OW0021931,"LITTLE CAESAR, INC",RESTAURANT (0-30) SEATS MODERATE RISK,1631,LITTLE CAESAR'S #5737,ACTIVE,PR0041313,"['Pizza', 'Fast Food']",False,34.072711,-118.291277,$,2.5,43,g5rkEnfiINqv4wf2idXM4w
54,653,DA7QQLCKP,05/03/2016 12:00:00 AM,SBARRO,93,A,1,ROUTINE INSPECTION,EE0001058,201 N LOS ANGELES ST STE 22-A,LOS ANGELES,FA0032189,CA,90012,OW0034852,TAJ MANAGEMENT INC,RESTAURANT (0-30) SEATS MODERATE RISK,1631,SBARRO,ACTIVE,PR0037161,"['Italian', 'Pizza']",False,34.0524637,-118.2418311,$,2.0,15,VFiAeP9nv2CdWOOTlp2_oA
55,654,DATTHRAK6,05/03/2016 12:00:00 AM,SPITZ,91,A,1,ROUTINE INSPECTION,EE0000846,1725 N HILLHURST AVE,LOS ANGELES,FA0070794,CA,90027,OW0029382,RADWICK ENTERPRISES LLC,RESTAURANT (31-60) SEATS HIGH RISK,1635,SPITZ,ACTIVE,PR0023232,"['Bars', 'Sandwiches', 'Mediterranean']",False,34.102568,-118.287531,$$,4.0,682,RgLppz8IyYLM6eQZklOv9w
56,655,DASYDSNUO,05/03/2016 12:00:00 AM,MANILA SUNSET,91,A,1,ROUTINE INSPECTION,EE0000893,1016 N VERMONT AVE,LOS ANGELES,FA0038444,CA,90029,OW0014599,"HALILI-DEL ROSARIO, INC.",RESTAURANT (31-60) SEATS HIGH RISK,1635,MANILA SUNSET,ACTIVE,PR0032870,['Filipino'],False,34.0901168736285,-118.291400224123,$,3.5,143,WRTTkYLgEry6ox7AU0HZtg
57,656,DABQXRVSL,05/03/2016 12:00:00 AM,DEMITASSE,97,A,1,ROUTINE INSPECTION,EE0001058,135 S SAN PEDRO ST,LOS ANGELES,FA0010964,CA,90012,OW0009747,DEMITASSE LLC.,RESTAURANT (0-30) SEATS MODERATE RISK,1631,DEMITASSE,ACTIVE,PR0036729,"['Coffee & Tea', 'Desserts', 'Breakfast & Brunch']",False,34.0496726343766,-118.241869211197,$$,4.0,954,SqtMWGo-MMiinpG6_f0AQw
58,657,DAIGR9I7O,05/03/2016 12:00:00 AM,CALIFORNIA PITA,94,A,1,ROUTINE INSPECTION,EE0001058,201 N LOS ANGELES ST STE 9,LOS ANGELES,FA0012382,CA,90012,OW0009514,"DAVOOD, SHAHROKH",RESTAURANT (61-150) SEATS MODERATE RISK,1637,CALIFORNIA PITA,ACTIVE,PR0024716,['Mediterranean'],False,34.054392,-118.240584,$,3.0,61,CyKAbAFK34NLjBOYq7tkiA
59,659,DAJ870FGG,05/03/2016 12:00:00 AM,DAILY CHINA EXPRESS,91,A,1,ROUTINE INSPECTION,EE0000846,1907 HILLHURST AVE,LOS ANGELES,FA0060592,CA,90027,OW0021145,"LEE, BEN",RESTAURANT (0-30) SEATS HIGH RISK,1632,DAILY CHINA EXPRESS,ACTIVE,PR0006957,['Chinese'],False,34.10556,-118.2875449,$,4.0,53,rGdvMfl67B6bjpNYt1Ysug
60,661,DA2Y0AX0I,05/03/2016 12:00:00 AM,QUIZNO'S,95,A,1,ROUTINE INSPECTION,EE0001058,201 N LOS ANGELES ST STE 22,LOS ANGELES,FA0044914,CA,90012,OW0026389,NUTRI STORES INC,RESTAURANT (0-30) SEATS MODERATE RISK,1631,QUIZNO'S,ACTIVE,PR0000013,"['Sandwiches', 'Fast Food']",False,34.0524637,-118.2418311,$,2.0,28,BMqFQbIcEXCe_z2R9_IKPA
61,663,DAXSG0PMQ,05/03/2016 12:00:00 AM,CAFE LOS FELIZ INC,96,A,1,ROUTINE INSPECTION,EE0000846,2118 HILLHURST AVE,LOS ANGELES,FA0175039,CA,90027,OW0181642,CAFE LOS FELIZ INC,RESTAURANT (0-30) SEATS MODERATE RISK,1631,CAFE LOS FELIZ INC,ACTIVE,PR0168140,"['Coffee & Tea', 'Sandwiches', 'Breakfast & Brunch']",False,34.110554,-118.287223,$$,4.0,682,FPBsEp6Ecp_JE7KD5NsDeA
62,664,DABWD6XFF,05/03/2016 12:00:00 AM,EL POLLO LOCO #3369,96,A,1,ROUTINE INSPECTION,EE0000893,912 N VERMONT AVE,LOS ANGELES,FA0021088,CA,90029,OW0002438,"AMAYA, NELSON RUDY",RESTAURANT (31-60) SEATS HIGH RISK,1635,EL POLLO LOCO #3369,ACTIVE,PR0038046,"['Fast Food', 'Mexican']",False,34.0881070396923,-118.2914601309,$,2.5,26,tYdct_up-54r4buGNXftEw
63,665,DAXEPYH9G,05/03/2016 12:00:00 AM,NAK WON RICE BAKERY INC,95,A,1,ROUTINE INSPECTION,EE0001003,205 N WESTERN AVE,LOS ANGELES,FA0041135,CA,90004,OW0039813,"YOO, DOK SANG",RESTAURANT (0-30) SEATS MODERATE RISK,1631,NAK WON RICE BAKERY INC,ACTIVE,PR0029922,['Bakeries'],False,34.07479,-118.30951,$,4.5,4,2hFNGKplO35tFJMMwjxKKg
64,666,DASX0ICHY,05/03/2016 12:00:00 AM,SUBWAY,96,A,1,ROUTINE INSPECTION,EE0001003,207 N WESTERN AVE,LOS ANGELES,FA0049791,CA,90004,OW0005591,C G INVESTMENTS INC,RESTAURANT (0-30) SEATS MODERATE RISK,1631,SUBWAY,INACTIVE,PR0019339,"['Sandwiches', 'Fast Food']",True,34.0748952,-118.3092749,$,4.0,12,8cusug4o6zrArKlH5OYJqg
65,668,DAJLXNZLN,05/02/2016 12:00:00 AM,STARBUCKS COFFEE #21800,96,A,1,ROUTINE INSPECTION,EE0000724,5857 S CENTRAL AVE,LOS ANGELES,FA0159889,CA,90001,OW0033938,STARBUCKS COFFEE CORPORATION,RESTAURANT (0-30) SEATS LOW RISK,1630,STARBUCKS COFFEE #21800,ACTIVE,PR0147964,['Coffee & Tea'],False,33.987956238919,-118.257122941139,$,3.0,56,merpERKMMf6MpAUDYq9vZg
66,670,DAWSPSANO,05/02/2016 12:00:00 AM,EL TARASCO,96,A,1,ROUTINE INSPECTION,EE0000997,3425 E 1ST ST 3RD FL,LOS ANGELES,FA0061644,CA,90063,OW0030711,"ROSADO, PEDRO",RESTAURANT (151 + ) SEATS HIGH RISK,1641,EL TARASCO,ACTIVE,PR0026046,['Mexican'],False,34.03731,-118.1937,$$,2.0,10,vg5SrLqAwAiDJW5KzwZlsQ
67,672,DACDVCKJT,05/02/2016 12:00:00 AM,CRAVINGS,94,A,1,ROUTINE INSPECTION,EE0000924,10850 WILSHIRE BLVD STE 102,LOS ANGELES,FA0017211,CA,90024,OW0016754,HYO SIL KIM,RESTAURANT (31-60) SEATS HIGH RISK,1635,CRAVINGS,INACTIVE,PR0022604,"['Mediterranean', 'Breakfast & Brunch']",False,34.0590132,-118.4416802,$,3.5,12,Ay_ISxUjUGaHfJpFNZew8A
68,673,DADRMQKMV,05/02/2016 12:00:00 AM,THE COFFEE BEAN & TEA LEAF,98,A,1,ROUTINE INSPECTION,EE0000721,645 W 9TH ST STE #108,LOS ANGELES,FA0016063,CA,90015,OW0017025,INTERNATIONAL COFFEE & TEA LLC,RESTAURANT (0-30) SEATS LOW RISK,1630,COFFEE BEAN & TEA LEAF,ACTIVE,PR0029505,['Coffee & Tea'],True,34.045384,-118.260488,$,3.0,32,PzwecfAF9p3vt5PoX30_yQ
69,674,DAJZ5TTUC,05/02/2016 12:00:00 AM,MOON HOUSE CHINESE CUISINE,90,A,1,ROUTINE INSPECTION,EE0000924,11058 SANTA MONICA BLVD,LOS ANGELES,FA0137413,CA,90025,OW0100355,"TAI SHAN BROTHER, LLC.",RESTAURANT (31-60) SEATS HIGH RISK,1635,MOON HOUSE CHINESE CUISINE,ACTIVE,PR0121440,"['Dim Sum', 'Cantonese']",False,34.0475905438149,-118.443221636117,$$,3.5,415,G2q4Lqe7tEDjMGzazUXdVQ
70,675,DAN06KPBP,05/02/2016 12:00:00 AM,LA NUEVA FUENTE SEAFOOD,97,A,1,ROUTINE INSPECTION,EE0000997,3425 E 1ST ST STE 110,LOS ANGELES,FA0033482,CA,90063,OW0037321,"VARGAS, MAXIMILIANO & SONIA",RESTAURANT (0-30) SEATS HIGH RISK,1632,LA NUEVA FUENTE SEAFOOD,INACTIVE,PR0013898,['Mexican'],False,34.03731,-118.1937,$,2.0,6,rZQqaKJWhWNWLt6wXL2J8Q
71,676,DAFH8D0VL,05/02/2016 12:00:00 AM,SUBWAY,98,A,1,ROUTINE INSPECTION,EE0000176,2601 S LA BREA AVE,LOS ANGELES,FA0071172,CA,90016,OW0038300,WAHEGURU SUBWAY INC.,RESTAURANT (0-30) SEATS MODERATE RISK,1631,SUBWAY,ACTIVE,PR0045895,"['Sandwiches', 'Fast Food']",False,34.0322482,-118.3515703,$,1.5,11,JkfXeI0PHIEi5FQ14cTKAQ
72,677,DAJOPN1WL,05/02/2016 12:00:00 AM,JAMESON'S IRISH PUB,93,A,1,ROUTINE INSPECTION,EE0000822,6683 HOLLYWOOD BLVD,LOS ANGELES,FA0018587,CA,90028,OW0015629,HLWD IP GRILL LLC,RESTAURANT (61-150) SEATS HIGH RISK,1638,JAMESON'S IRISH PUB,ACTIVE,PR0002367,"['Sports Bars', 'Breakfast & Brunch', 'Irish Pub']",False,34.101849,-118.33589,$$,3.5,341,W_Id32XQ8QkqRswhZ8TKQA
73,678,DA1R7P2BC,05/02/2016 12:00:00 AM,POPEYES CHICKEN,95,A,1,ROUTINE INSPECTION,EE0000176,3050 S LA BREA AVE,LOS ANGELES,FA0028931,CA,90016,OW0003600,B&H FOODS INC,RESTAURANT (0-30) SEATS MODERATE RISK,1631,POPEYE'S CHICKEN,ACTIVE,PR0016796,"['Fast Food', 'Chicken Wings']",False,34.02576,-118.35441,$,2.0,134,cnO7vyhKDrIUaPLjwLR8hQ
74,679,DA7KOFONX,05/02/2016 12:00:00 AM,QWENCH 9TH AND FLOWER,96,A,1,ROUTINE INSPECTION,EE0000721,645 W 9TH ST STE 109,LOS ANGELES,FA0030823,CA,90017,OW0000115,"110 SUNSHINE SMOOTHIES, INC",RESTAURANT (0-30) SEATS MODERATE RISK,1631,QWENCH 9TH AND FLOWER,ACTIVE,PR0009626,['Juice Bars & Smoothies'],False,34.0458409370565,-118.261189162731,$$,3.5,118,0wBmQqtdhp4Ah9rv2ZmBJA
75,680,DAWPFM36R,05/02/2016 12:00:00 AM,TRIMANA,93,A,1,ROUTINE INSPECTION,EE0000924,10880 WILSHIRE BLVD STE 111,LOS ANGELES,FA0002846,CA,90024,OW0033571,SOO JEONG JU,RESTAURANT (31-60) SEATS HIGH RISK,1635,10880 WILSHIRE TRIMANA,ACTIVE,PR0040797,['Sandwiches'],True,34.05846,-118.4429,$,3.5,31,8Rh2w9GIpziWzdCuAT2n3Q
76,681,DAEG0RAAO,05/02/2016 12:00:00 AM,RINCON DE GUYABITOS,91,A,1,ROUTINE INSPECTION,EE0001049,735 S ATLANTIC BLVD,LOS ANGELES,FA0046455,CA,90022,OW0023456,"MARMOLEJO-RODRIGUEZ, MARIA I",RESTAURANT (31-60) SEATS HIGH RISK,1635,RINCON DE GUYABITOS,ACTIVE,PR0043614,"['Mexican', 'Seafood']",False,34.0217323577564,-118.157175354345,$$,3.0,30,MlVJ525eG65UQ4YFeoeb5A
77,682,DAEJYTKJR,05/02/2016 12:00:00 AM,TAQUERIA AMECA,94,A,1,ROUTINE INSPECTION,EE0001049,747 S ATLANTIC BLVD,LOS ANGELES,FA0036350,CA,90022,OW0009505,"DAVILA, GERARDO",RESTAURANT (0-30) SEATS HIGH RISK,1632,TAQUERIA AMECA,ACTIVE,PR0003660,['Mexican'],False,34.021577,-118.157317,$,4.5,140,JAks5OLgYOxoPW-wEOhh9Q
78,683,DAPAWIJVW,05/02/2016 12:00:00 AM,EL GALLO,98,A,1,ROUTINE INSPECTION,EE0000997,3425 E 1ST ST SO. 3RDFL,LOS ANGELES,FA0061426,CA,90063,OW0030712,"ROSADO,PEDRO M",RESTAURANT (31-60) SEATS HIGH RISK,1635,EL GALLO,ACTIVE,PR0043676,['Mexican'],False,34.03731,-118.1937,$$,2.0,10,vg5SrLqAwAiDJW5KzwZlsQ
79,684,DA0IOBZ5N,05/02/2016 12:00:00 AM,DUNKIN' DONUTS,98,A,1,ROUTINE INSPECTION,EE0000523,3100 GLENDALE BLVD # A,LOS ANGELES,FA0222655,CA,90039,OW0181830,GOOD TREATS LLC,RESTAURANT (0-30) SEATS MODERATE RISK,1631,DUNKIN' DONUTS,ACTIVE,PR0177685,"['Donuts', 'Coffee & Tea', 'Bakeries']",False,34.1161139,-118.262517,$,3.0,171,gu6Eu1fbOT-srq0Bhp3ggg
80,685,DARALCSUQ,05/02/2016 12:00:00 AM,ORIENTAL HOUSE RESTAURANT,95,A,1,ROUTINE INSPECTION,EE0001048,2302 S LA CIENEGA BLVD,LOS ANGELES,FA0027183,CA,90034,OW0021852,"LIN, STACY Y",RESTAURANT (0-30) SEATS HIGH RISK,1632,ORIENTAL HOUSE RESTAURANT,INACTIVE,PR0001257,['Chinese'],False,34.0379824,-118.3771,$,4.0,61,Vqjceg7VmKEMI8w1Wi6bRw
81,686,DA1SRZ4B2,05/02/2016 12:00:00 AM,SANTA MONICA CHEVRON,96,A,1,ROUTINE INSPECTION,EE0000684,11261 SANTA MONICA BLVD,LOS ANGELES,FA0047797,CA,90025,OW0031719,SANTA MONICA 405 INC.,RESTAURANT (0-30) SEATS HIGH RISK,1632,SANTA MONICA CHEVRON,ACTIVE,PR0035997,['Gas Stations'],False,34.0469818115234,-118.447792053223,blank,2.5,15,E4-watOlqVYt0ZHBpieoOQ
82,688,DASEZC8ZB,05/02/2016 12:00:00 AM,MCDONALD'S #27507,94,A,401,OWNER INITIATED ROUTINE INSPECT.,EE0001025,505 W FLORENCE AVE,LOS ANGELES,FA0038298,CA,90044,OW0002241,AL-MATT INC,RESTAURANT (31-60) SEATS MODERATE RISK,1634,MC DONALDS #27507,ACTIVE,PR0022253,"['Fast Food', 'Burgers', 'Coffee & Tea']",False,33.9749,-118.283005,$,1.5,27,Kjfge9qCqyYgFmDm6Fd4XQ
83,1632,DAULIMVVG,04/13/2016 12:00:00 AM,MCDONALD'S #27507,83,B,1,ROUTINE INSPECTION,EE0001025,505 W FLORENCE AVE,LOS ANGELES,FA0038298,CA,90044,OW0002241,AL-MATT INC,RESTAURANT (31-60) SEATS MODERATE RISK,1634,MC DONALDS #27507,ACTIVE,PR0022253,"['Fast Food', 'Burgers', 'Coffee & Tea']",False,33.9749,-118.283005,$,1.5,27,Kjfge9qCqyYgFmDm6Fd4XQ
84,689,DABI1EDJX,05/02/2016 12:00:00 AM,PAMORE PIZZA,100,A,1,ROUTINE INSPECTION,EE0000950,6562 E OLYMPIC BLVD,LOS ANGELES,FA0138845,CA,90022,OW0018192,K & E PIZZA INC.,RESTAURANT (0-30) SEATS MODERATE RISK,1631,PAMORE PIZZA,ACTIVE,PR0123213,['Pizza'],True,34.011575,-118.131406,$,3.0,24,IOvsSxMW_mfZhyL5a5ZUgw
85,690,DATDL1VND,05/02/2016 12:00:00 AM,LA PERLA,99,A,1,ROUTINE INSPECTION,EE0000997,3425 E 1ST ST #N 3RDF,LOS ANGELES,FA0065253,CA,90063,OW0030712,"ROSADO,PEDRO M",RESTAURANT (0-30) SEATS HIGH RISK,1632,LA PERLA,ACTIVE,PR0033404,['Mexican'],False,34.03731,-118.1937,$$,2.0,26,yg7m1ltSa2E736iyWILWJA
86,691,DAW9QWRDQ,05/02/2016 12:00:00 AM,JACK IN THE BOX #3262,96,A,1,ROUTINE INSPECTION,EE0000176,5101 W JEFFERSON BLVD,LOS ANGELES,FA0029780,CA,90016,OW0017276,"JACK IN THE BOX, INC",RESTAURANT (61-150) SEATS MODERATE RISK,1637,JACK IN THE BOX #3262,ACTIVE,PR0007787,"['Fast Food', 'Burgers']",False,34.02578,-118.3551,$,2.0,53,Ha5pSpSeMyBw_yNQmyRdfQ
87,692,DASBF3Z1R,05/02/2016 12:00:00 AM,VEGAN HOUSE,90,A,1,ROUTINE INSPECTION,EE0000822,1717 N WILCOX AVE,LOS ANGELES,FA0222722,CA,90028,OW0227521,VEGAN HOUSE,RESTAURANT (0-30) SEATS HIGH RISK,1632,VEGAN HOUSE,INACTIVE,PR0177748,"['Vegetarian', 'Vegan']",True,34.1022,-118.33146,$,4.0,325,QEBZTcagBaCiGBW-yI-mIw
88,693,DA0H6NMHL,05/02/2016 12:00:00 AM,GUATEMALTECA BAKERY,94,A,1,ROUTINE INSPECTION,EE0001003,4032 BEVERLY BLVD,LOS ANGELES,FA0167848,CA,90004,OW0130817,DANNY'S BAKERY INC,RESTAURANT (31-60) SEATS HIGH RISK,1635,GUATEMALTECA BAKERY,ACTIVE,PR0158269,"['Bakeries', 'Cupcakes']",False,34.07609,-118.29696,$,4.0,60,Vijif4P3lBBjc7ErRMwrnQ
89,694,DAED1TCIV,05/02/2016 12:00:00 AM,CACTUS MEXICAN FOOD #2,90,A,1,ROUTINE INSPECTION,EE0001003,4370 BEVERLY BLVD,LOS ANGELES,FA0011666,CA,90004,OW0032891,"SILVA, MARTHA",RESTAURANT (0-30) SEATS HIGH RISK,1632,CACTUS MEXICAN FOOD #2,ACTIVE,PR0014449,['Mexican'],False,34.0761255,-118.304113,$,3.5,303,4VgIBr6bgx0Aq3S4ARM1pA
90,695,DAGUAY1KU,04/29/2016 12:00:00 AM,FLAVORS OF THAI,95,A,1,ROUTINE INSPECTION,EE0000721,1275 S UNION AVE,LOS ANGELES,FA0171644,CA,90015,OW0178716,JULIE KHAMPHANTHONG,RESTAURANT (0-30) SEATS HIGH RISK,1632,FLAVORS OF THAI,ACTIVE,PR0164077,['Thai'],False,34.0450689960492,-118.276794187402,$,4.0,462,LjFzKhP13GS6_CRM0HkEVg
91,696,DAY7KQ36E,04/29/2016 12:00:00 AM,PURE PRESSED JUICE,93,A,1,ROUTINE INSPECTION,EE0000924,10844 W OLYMPIC BLVD,LOS ANGELES,FA0174163,CA,90006,OW0180865,DAWN LISA DAIL,RESTAURANT (0-30) SEATS MODERATE RISK,1631,PURE PRESSED JUICE,ACTIVE,PR0167033,['Juice Bars & Smoothies'],False,34.0438374708486,-118.431216997904,$$,4.5,107,6ycF5w1WLVkgy3NR43Wldg
92,697,DARRTOHT2,04/29/2016 12:00:00 AM,ANDRE OF TOWN & COUNTY LLC,97,A,1,ROUTINE INSPECTION,EE0000853,6332 W 3RD ST # 18-10,LOS ANGELES,FA0138986,CA,90036-3155,OW0102261,ANDRE OF TOWN & COUNTY LLC,RESTAURANT (61-150) SEATS HIGH RISK,1638,ANDRE'S ITALIAN RESTAURANT & PIZZERIA,ACTIVE,PR0123364,"['Italian', 'Pizza']",False,34.0711906,-118.3599417,$,4.0,1038,-CW_jNF0-x1RAhlGjX3JUg
93,697,DARRTOHT2,04/29/2016 12:00:00 AM,ANDRE OF TOWN & COUNTY LLC,97,A,1,ROUTINE INSPECTION,EE0000853,6332 W 3RD ST # 18-10,LOS ANGELES,FA0138986,CA,90036-3155,OW0102261,ANDRE OF TOWN & COUNTY LLC,RESTAURANT (61-150) SEATS HIGH RISK,1638,ANDRE'S ITALIAN RESTAURANT & PIZZERIA,ACTIVE,PR0123364,"['Italian', 'Pizza']",False,34.0711906,-118.3599417,$,4.0,1038,-CW_jNF0-x1RAhlGjX3JUg
94,723,DASBNSY62,04/29/2016 12:00:00 AM,ANDRE OD TOWN & COUNTY LLC,98,A,1,ROUTINE INSPECTION,EE0000853,6332 W 3RD ST # 18-10,LOS ANGELES,FA0138985,CA,90036-3155,OW0102261,ANDRE OF TOWN & COUNTY LLC,RESTAURANT (0-30) SEATS HIGH RISK,1632,ANDRE'S PRODUCTION KITCHEN,ACTIVE,PR0123363,"['Italian', 'Pizza']",False,34.0711906,-118.3599417,$,4.0,1038,-CW_jNF0-x1RAhlGjX3JUg
95,723,DASBNSY62,04/29/2016 12:00:00 AM,ANDRE OD TOWN & COUNTY LLC,98,A,1,ROUTINE INSPECTION,EE0000853,6332 W 3RD ST # 18-10,LOS ANGELES,FA0138985,CA,90036-3155,OW0102261,ANDRE OF TOWN & COUNTY LLC,RESTAURANT (0-30) SEATS HIGH RISK,1632,ANDRE'S PRODUCTION KITCHEN,ACTIVE,PR0123363,"['Italian', 'Pizza']",False,34.0711906,-118.3599417,$,4.0,1038,-CW_jNF0-x1RAhlGjX3JUg
96,698,DA6JZQFUK,04/29/2016 12:00:00 AM,MR ANGELOS PIZZA,93,A,1,ROUTINE INSPECTION,EE0000798,3961 S WESTERN AVE,LOS ANGELES,FA0025774,CA,90062,OW0029502,RAMIREZ JUAN A.,RESTAURANT (0-30) SEATS MODERATE RISK,1631,MR ANGELOS PIZZA,ACTIVE,PR0015976,['Pizza'],False,34.012505,-118.3090549,$$,3.5,29,_kmgIi-NOgXyoRCVm74T5g
97,699,DA6RI0OLG,04/29/2016 12:00:00 AM,YEYA'S,90,A,1,ROUTINE INSPECTION,EE0000740,1816 E 1ST ST,LOS ANGELES,FA0055279,CA,90033,OW0013566,GOMEZ ERICA,RESTAURANT (0-30) SEATS HIGH RISK,1632,YEYA'S,ACTIVE,PR0004594,['Mexican'],False,34.0470844105938,-118.219201475054,$,4.5,79,5LtA8XdCN-pP7QRcJeFSHg
98,700,DAUYN1RR0,04/29/2016 12:00:00 AM,SOY ROLL & KATSU,90,A,1,ROUTINE INSPECTION,EE0000594,3335 S FIGUEROA ST # AUGY4,LOS ANGELES,FA0049031,CA,90007,OW0033749,SOY EXPRESS INC.,RESTAURANT (0-30) SEATS HIGH RISK,1632,SOY ROLL & KATSU,ACTIVE,PR0023173,['Japanese'],False,34.02226,-118.28022,$,2.5,150,V9sYjHX7X68ysPPLXpcWDQ
99,701,DAVWXHEQE,04/29/2016 12:00:00 AM,DOG HAUS,97,A,1,ROUTINE INSPECTION,EE0000594,3335 S FIGUEROA ST #D,LOS ANGELES,FA0179908,CA,90007,OW0185389,"DHFIG, INC",RESTAURANT (61-150) SEATS HIGH RISK,1638,DOG HAUS,ACTIVE,PR0173590,"['Hot Dogs', 'Burgers', 'Beer Gardens']",False,34.0222389882801,-118.280095692065,$,3.5,239,-GFRTSWSiUO1Ewaj57yowg
100,702,DA20FDPTX,04/29/2016 12:00:00 AM,JUICY FACTORY,94,A,401,OWNER INITIATED ROUTINE INSPECT.,EE0000822,6708 HOLLYWOOD BLVD,LOS ANGELES,FA0023384,CA,90028,OW0001159,"6708 HOLLYWOOD ASSOCIATES, LLC",RESTAURANT (61-150) SEATS HIGH RISK,1638,JUICY FACTORY,INACTIVE,PR0034491,"['Juice Bars & Smoothies', 'Sandwiches', 'Desserts']",True,34.10095,-118.33665,$,3.5,62,wVqanp9f5zpQittfcb6H6A
101,1450,DAZBWE6YF,04/19/2016 12:00:00 AM,JUICY FACTORY,82,B,1,ROUTINE INSPECTION,EE0000822,6708 HOLLYWOOD BLVD,LOS ANGELES,FA0023384,CA,90028,OW0001159,"6708 HOLLYWOOD ASSOCIATES, LLC",RESTAURANT (61-150) SEATS HIGH RISK,1638,JUICY FACTORY,INACTIVE,PR0034491,"['Juice Bars & Smoothies', 'Sandwiches', 'Desserts']",True,34.10095,-118.33665,$,3.5,62,wVqanp9f5zpQittfcb6H6A
102,703,DAOPRQZKW,04/29/2016 12:00:00 AM,EAGLE'S LODGE,93,A,1,ROUTINE INSPECTION,EE0000162,1596 YOSEMITE DR,LOS ANGELES,FA0061219,CA,90041,OW0010622,EAGLEHS LODGE INC,RESTAURANT (0-30) SEATS LOW RISK,1630,EAGLE'S LODGE,ACTIVE,PR0011060,['Venues & Event Spaces'],False,34.1326904296875,-118.201583862305,blank,4.5,3,kZz-3Kz6Po_CImjdwQJIXA
103,704,DAK9QS4GP,04/29/2016 12:00:00 AM,JACK IN THE BOX # 5323,96,A,1,ROUTINE INSPECTION,EE0000799,1365 E FLORENCE AVE,LOS ANGELES,FA0064105,CA,90001,OW0017276,"JACK IN THE BOX, INC",RESTAURANT (61-150) SEATS MODERATE RISK,1637,JACK IN THE BOX,ACTIVE,PR0018884,"['Fast Food', 'Burgers']",False,33.9748849,-118.2502798,$,1.5,19,Gia2eKmhgxyfc7BAjU_LVA
104,706,DAMPR5Q0Y,04/29/2016 12:00:00 AM,WINCHELL'S DONUTS #9888,93,A,1,ROUTINE INSPECTION,EE0000799,1457 E FLORENCE AVE STE #107,LOS ANGELES,FA0041283,CA,90001,OW0040037,YUM YUM DONUT SHOPS INC.,RESTAURANT (0-30) SEATS MODERATE RISK,1631,WINCHELL'S DONUTS #9888,ACTIVE,PR0023647,"['Donuts', 'Bakeries', 'Sandwiches']",False,33.97507,-118.24816,blank,3.0,4,QclhsmaioCD_w7-BlWOsow
105,707,DAEQM13R1,04/29/2016 12:00:00 AM,SUBWAY #36047,99,A,1,ROUTINE INSPECTION,EE0000799,1457 E FLORENCE AVE STE 112,LOS ANGELES,FA0180880,CA,90001-1966,OW0029941,"RELIANCE RESTAURANTS, LLC",RESTAURANT (0-30) SEATS MODERATE RISK,1631,SUBWAY #36047,ACTIVE,PR0174712,"['Sandwiches', 'Fast Food']",False,33.975392581273,-118.247989798449,$,2.5,6,94Y-0XfMowAlWI8el9jayg
106,708,DASWDJGDZ,04/29/2016 12:00:00 AM,BUELLER'S BAGELS,90,A,1,ROUTINE INSPECTION,EE0000924,10840 W OLYMPIC BLVD,LOS ANGELES,FA0006428,CA,90064,OW0018483,KARBO-RICO INC.,RESTAURANT (0-30) SEATS MODERATE RISK,1631,BUELLER'S BAGELS,ACTIVE,PR0010804,['Bagels'],False,34.0442372034855,-118.43108213338,$,3.5,72,3FTOg-6TGVGq1fc4LJwKOw
107,709,DAX0BKN0A,04/29/2016 12:00:00 AM,WINCHELL'S DONUT #9890,98,A,1,ROUTINE INSPECTION,EE0000799,1931 E FLORENCE AVE,LOS ANGELES,FA0165123,CA,90001,OW0040037,YUM YUM DONUT SHOPS INC.,RESTAURANT (0-30) SEATS MODERATE RISK,1631,WINCHELL'S DONUT,ACTIVE,PR0153434,"['Donuts', 'Coffee & Tea', 'Sandwiches']",False,33.9748549,-118.238347,$,2.5,13,ByGvkWeRaM_uWWcxGtJbqw
108,710,DA0L2URJI,04/29/2016 12:00:00 AM,PHO BROADWAY,92,A,1,ROUTINE INSPECTION,EE0000740,942 N BROADWAY STE #102,LOS ANGELES,FA0043836,CA,90012,OW0035381,THAI MUOI,RESTAURANT (31-60) SEATS HIGH RISK,1635,PHO BROADWAY,ACTIVE,PR0024705,"['Vietnamese', 'Noodles']",False,34.06496,-118.23655,$,4.0,263,5e1GFapCDQYGqkDxlFtMnw
109,711,DAAOKFIZQ,04/29/2016 12:00:00 AM,CJ SPA RESTAURANT,87,B,1,ROUTINE INSPECTION,EE0000723,620 S UNION AVE,LOS ANGELES,FA0174149,CA,90017,OW0178814,"CJ SPA GROUP, INC.",RESTAURANT (31-60) SEATS HIGH RISK,1635,CJ SPA RESTAURANT,ACTIVE,PR0167018,"['Day Spas', 'Massage', 'Skin Care']",False,34.0560864465747,-118.269035971689,$$,4.0,964,R_FOybCX6e3GilPvoS89Lw
110,712,DAW4TFVGU,04/29/2016 12:00:00 AM,LA PLAYITA,90,A,1,ROUTINE INSPECTION,EE0000740,2200 N BROADWAY,LOS ANGELES,FA0065276,CA,90031,OW0009977,DIAZ SERGIO,RESTAURANT (31-60) SEATS HIGH RISK,1635,LA PLAYITA,ACTIVE,PR0044395,"['Mexican', 'Seafood']",False,34.07335,-118.21748,$,3.5,73,ZL16kfZyZ4auY1Ec0UyaKQ
111,713,DAS90R9NX,04/29/2016 12:00:00 AM,TINA'S TACOS,99,A,1,ROUTINE INSPECTION,EE0000246,135 N GRAND AVE,LOS ANGELES,FA0011954,CA,90012,OW0029347,RA MUSIC INC,RESTAURANT (0-30) SEATS MODERATE RISK,1631,TINA'S TACOS,ACTIVE,PR0043458,"['Food Stands', 'Mexican']",True,34.0579547,-118.2480112,$,3.0,42,lD4-OTlHi0pmzNgQzT6HRg
112,2212,DA5HZ6ZO9,04/01/2016 12:00:00 AM,TINA'S TACOS,98,A,1,ROUTINE INSPECTION,EE0000246,135 N GRAND AVE,LOS ANGELES,FA0011954,CA,90012,OW0029347,RA MUSIC INC,RESTAURANT (0-30) SEATS MODERATE RISK,1631,TINA'S TACOS,ACTIVE,PR0043458,"['Food Stands', 'Mexican']",True,34.0579547,-118.2480112,$,3.0,42,lD4-OTlHi0pmzNgQzT6HRg
113,2230,DASYUIYRN,04/01/2016 12:00:00 AM,BANQUET KITCHEN,97,A,1,ROUTINE INSPECTION,EE0000246,135 N GRAND AVE,LOS ANGELES,FA0004876,CA,90012,OW0029347,RA MUSIC INC,RESTAURANT (151 + ) SEATS HIGH RISK,1641,"BANQUET KITCHEN, 5TH FL",ACTIVE,PR0006869,"['Food Stands', 'Mexican']",True,34.0579547,-118.2480112,$,3.0,42,lD4-OTlHi0pmzNgQzT6HRg
114,2235,DAN0QQ05X,04/01/2016 12:00:00 AM,IMPRESSARIO RISTORANTE & BAR,98,A,1,ROUTINE INSPECTION,EE0000246,135 N GRAND AVE,LOS ANGELES,FA0029252,CA,90012,OW0029347,RA MUSIC INC,RESTAURANT (61-150) SEATS HIGH RISK,1638,"IMPRESSARIO RISTORANTE, 5TH FL",ACTIVE,PR0025656,"['Food Stands', 'Mexican']",True,34.0579547,-118.2480112,$,3.0,42,lD4-OTlHi0pmzNgQzT6HRg
115,714,DAOSJZ1ZB,04/29/2016 12:00:00 AM,BLVD. CAFE,92,A,1,ROUTINE INSPECTION,EE0001049,4555 E WHITTIER BLVD,LOS ANGELES,FA0010254,CA,90022,OW0023829,MAYA JOSE LUIS,RESTAURANT (31-60) SEATS HIGH RISK,1635,BLVD. CAFE,ACTIVE,PR0022853,['Mexican'],False,34.023138,-118.169219,$,4.5,54,Zqp4_CjfBacsAO_1v3_ilg
116,715,DAHS10VB9,04/29/2016 12:00:00 AM,SHIN RAMEN,90,A,1,ROUTINE INSPECTION,EE0000835,1655 N LA BREA AVE,LOS ANGELES,FA0165154,CA,90028,OW0128435,"SLICK WILLY, LLC",RESTAURANT (31-60) SEATS HIGH RISK,1635,SHIN RAMEN,ACTIVE,PR0153468,"['Ramen', 'Sushi Bars']",False,34.1012994,-118.3452844,$$,4.0,529,VhKyyEcOll0rrOLAbZio3Q
117,716,DAUP2ELRY,04/29/2016 12:00:00 AM,YOSHINOYA #1226,93,A,1,ROUTINE INSPECTION,EE0000740,2500 N PASADENA AVE,LOS ANGELES,FA0074322,CA,90031,OW0101581,"YOSHINOYA AMERICA, INC.",RESTAURANT (31-60) SEATS MODERATE RISK,1634,YOSHINOYA BEEF BOWL,ACTIVE,PR0020916,['Japanese'],False,34.07615,-118.21604,$,2.5,55,m9XTYr5jibyrMRPFZvTQag
118,717,DAYDYNZKT,04/29/2016 12:00:00 AM,DOMINO'S PIZZA #8432,98,A,1,ROUTINE INSPECTION,EE0000799,2025 E FLORENCE AVE,LOS ANGELES,FA0019510,CA,90001,OW0036039,TND PIZZA INC,RESTAURANT (0-30) SEATS MODERATE RISK,1631,DOMINO'S PIZZA #8432,ACTIVE,PR0006830,"['Pizza', 'Chicken Wings', 'Sandwiches']",False,33.9748649,-118.2353248,$$,1.5,52,56xgAoxKXZ_q-PGOclb0rw
119,719,DAYU5XB7P,04/29/2016 12:00:00 AM,MARTITA'S MEXICAN RESTAURANT,90,A,1,ROUTINE INSPECTION,EE0000740,2657 PASADENA AVE,LOS ANGELES,FA0038046,CA,90031,OW0032230,SEPULVEDA CRUZ R.,RESTAURANT (0-30) SEATS HIGH RISK,1632,MARTITA'S MEXICAN RESTAURANT,ACTIVE,PR0022885,['Mexican'],False,34.0784552640991,-118.215173872232,$,4.5,22,Qr4VqR65FdJCgp0eaOVlNg
120,720,DAYTDRUGO,04/29/2016 12:00:00 AM,MAPO GALMAEGI BBQ,92,A,401,OWNER INITIATED ROUTINE INSPECT.,EE0000854,3460 W 8TH ST,LOS ANGELES,FA0179332,CA,90005-2518,OW0184902,DIDIM FOOD USA INC,RESTAURANT (61-150) SEATS HIGH RISK,1638,MAPO GALMAEGI BBQ,ACTIVE,PR0172925,"['Korean', 'Barbeque']",False,34.057544,-118.305579846558,$$,4.5,673,NrzSO_pQ88A3jSMqh_QuNg
121,1474,DAGAYCVR2,04/19/2016 12:00:00 AM,MAPO GALMAEGI BBQ,80,B,1,ROUTINE INSPECTION,EE0000854,3460 W 8TH ST,LOS ANGELES,FA0179332,CA,90005-2518,OW0184902,DIDIM FOOD USA INC,RESTAURANT (61-150) SEATS HIGH RISK,1638,MAPO GALMAEGI BBQ,ACTIVE,PR0172925,"['Korean', 'Barbeque']",False,34.057544,-118.305579846558,$$,4.5,673,NrzSO_pQ88A3jSMqh_QuNg
122,721,DAC7WH1UK,04/29/2016 12:00:00 AM,CAFE 9,97,A,1,ROUTINE INSPECTION,EE0000660,453 S SPRING ST STE 900,LOS ANGELES,FA0142274,CA,90013-2013,OW0105446,"LO, CALVIN",RESTAURANT (0-30) SEATS HIGH RISK,1632,CAFE 9,ACTIVE,PR0128714,"['Breakfast & Brunch', 'Sandwiches']",False,34.0477867126465,-118.24974822998,$,4.0,92,nD2MxxcUgoT0PvJEilXtsw
123,722,DAUSMRX0U,04/29/2016 12:00:00 AM,MEL'S COFFEE SHOP,96,A,1,ROUTINE INSPECTION,EE0000721,1300 OLYMPIC BLVD 102-A,LOS ANGELES,FA0167108,CA,90015,OW0130183,HERON ZARATE,RESTAURANT (0-30) SEATS MODERATE RISK,1631,MEL'S COFFEE SHOP,INACTIVE,PR0157450,"['Coffee & Tea', 'Breakfast & Brunch', 'Sandwiches']",False,34.0472037930758,-118.270487640475,$$,3.0,1,8UWx-BOE6u4bzjuUWZFxnw
124,724,DA8YFLJ5K,04/29/2016 12:00:00 AM,THE FLAME BROILER,92,A,1,ROUTINE INSPECTION,EE0000594,2526 S FIGUEROA ST,LOS ANGELES,FA0072263,CA,90007,OW0035827,THFB INC.,RESTAURANT (31-60) SEATS HIGH RISK,1635,THE FLAME BROILER,ACTIVE,PR0041667,"['Asian Fusion', 'Fast Food']",False,34.0283585,-118.2755585,$,3.5,87,gCGZtjJoCjis143hl5V48A
125,725,DAMVSNIAH,04/29/2016 12:00:00 AM,PLAZA SALOON,95,A,1,ROUTINE INSPECTION,EE0000951,739 N LA BREA AVE,LOS ANGELES,FA0002263,CA,90046,OW0028718,MEL-BREA INC.,RESTAURANT (31-60) SEATS LOW RISK,1633,PLAZA SALOON,ACTIVE,PR0025155,"['Gay Bars', 'Dance Clubs']",False,34.0845741,-118.3438683,$,4.0,35,XAfufp062GrYgG7Mwq1Naw
126,726,DATEPSKOI,04/29/2016 12:00:00 AM,PHO 87 VIETNAMESE RESTAURANT,87,B,1,ROUTINE INSPECTION,EE0000740,1019 N BROADWAY,LOS ANGELES,FA0180809,CA,90012,OW0186153,PHO TIEN INC,RESTAURANT (61-150) SEATS HIGH RISK,1638,PHO 87 VIETNAMESE RESTAURANT,ACTIVE,PR0174628,"['Vietnamese', 'Noodles', 'Chinese']",False,34.0672573,-118.2356333,$,4.0,1228,EiGZST3PxwKs94PTOsD4eQ
127,727,DAOATRNWZ,04/29/2016 12:00:00 AM,UN SOLO SOL KITCHEN,90,A,1,ROUTINE INSPECTION,EE0000740,1818 E 1ST ST,LOS ANGELES,FA0038931,CA,90033,OW0036854,UN SOLO SOL FOOD SERVICE,RESTAURANT (0-30) SEATS HIGH RISK,1632,UN SOLO SOL KITCHEN,ACTIVE,PR0047289,"['Latin American', 'Vegetarian', 'Vegan']",False,34.047022,-118.21915,$$,4.5,504,mBD3hhlyqc2A301Y1CVwUg
128,729,DAY1IC1IB,04/29/2016 12:00:00 AM,TEPECHI RESTAURANT,90,A,1,ROUTINE INSPECTION,EE0000557,3702 MEDFORD ST,LOS ANGELES,FA0173779,CA,90063,OW0180540,RODOLFO GUTIERREZ CASTRELLON,RESTAURANT (31-60) SEATS HIGH RISK,1635,TEPECHI RESTAURANT,INACTIVE,PR0166572,['Mexican'],True,34.0596396557344,-118.185851626983,blank,4.0,1,LlANYwZARbgz5On_fCUOiw
129,730,DA5IUJGU0,04/29/2016 12:00:00 AM,BLAZE PIZZA,97,A,1,ROUTINE INSPECTION,EE0000594,3335 S FIGUEROA ST,LOS ANGELES,FA0167118,CA,90007,OW0130192,GATEWAY USC LLC,RESTAURANT (61-150) SEATS HIGH RISK,1638,BLAZE PIZZA,ACTIVE,PR0157468,"['Salad', 'Pizza', 'Fast Food']",False,34.0231904567859,-118.279516334918,$,4.0,313,fmf9Gz1afO8X0aohHsyWZA
130,732,DAA5F0BEE,04/29/2016 12:00:00 AM,SUBWAY,98,A,1,ROUTINE INSPECTION,EE0000727,11762 SAN VICENTE BLVD,LOS ANGELES,FA0049790,CA,90049,OW0005218,BRENTWOOD SUBWAY INC,RESTAURANT (0-30) SEATS MODERATE RISK,1631,SUBWAY,INACTIVE,PR0034888,"['Fast Food', 'Sandwiches']",True,34.0529631,-118.4677637,$,3.5,16,K0gSQX42mFW-kTU3wnvOdA
131,733,DAQPFJE2O,04/28/2016 12:00:00 AM,LACMA MAIN KITCHEN,97,A,1,ROUTINE INSPECTION,EE0000853,5905 WILSHIRE BLVD,LOS ANGELES,FA0021199,CA,90036,OW0035686,THE PATINA GROUP NEWCO LLC,RESTAURANT (0-30) SEATS HIGH RISK,1632,LACMA MAIN KITCHEN,ACTIVE,PR0016636,"['Museums', 'Art Galleries']",False,34.06372,-118.35689,blank,3.0,1,1BR_qljSOrBckwtraDKk-w
132,826,DAC0PEZ30,04/28/2016 12:00:00 AM,RAY'S AT LACMA,98,A,1,ROUTINE INSPECTION,EE0000853,5905 WILSHIRE BLVD,LOS ANGELES,FA0069377,CA,90036,OW0029348,"PATINA RESTAURANT GROUP, LLC",RESTAURANT (151 + ) SEATS HIGH RISK,1641,RAY'S,ACTIVE,PR0020060,"['Museums', 'Art Galleries']",False,34.06372,-118.35689,blank,3.0,1,1BR_qljSOrBckwtraDKk-w
133,734,DA5DHDJCA,04/28/2016 12:00:00 AM,YUKINOHANA JAPANESE RESTAURANT,90,A,1,ROUTINE INSPECTION,EE0000531,3100 W 8TH ST UNIT 103,LOS ANGELES,FA0138979,CA,90005,OW0102255,JI SUNG KIM,RESTAURANT (31-60) SEATS HIGH RISK,1635,YUKINOHANA JAPANESE RESTAURANT,INACTIVE,PR0123357,['Korean'],True,34.057573,-118.294498,$$,4.5,213,Mc9xMwSGokORq4hFCWuU0w
134,735,DACV4UIOT,04/28/2016 12:00:00 AM,SOUTHERN CALIFORNIA PIZZA CO LLC,97,A,1,ROUTINE INSPECTION,EE0001021,11710 S WILMINGTON AVE,LOS ANGELES,FA0028647,CA,90059,OW0033717,SOUTHERN CALIFORNIA PIZZA CO LLC,RESTAURANT (0-30) SEATS MODERATE RISK,1631,PIZZA HUT,ACTIVE,PR0042685,"['Pizza', 'Italian', 'Chicken Wings']",False,33.9271049499512,-118.238258361816,$,1.5,22,ZdVv4a4R1y5021MiPwrYLA
135,737,DAVH2SI6G,04/28/2016 12:00:00 AM,CROWN PLAZA LAX YOKOSO,96,A,1,ROUTINE INSPECTION,EE0000733,5985 CENTURY BLVD,LOS ANGELES,FA0156807,CA,90045,OW0122046,IHG MANAGEMENT MARYLAND LLC,RESTAURANT (0-30) SEATS HIGH RISK,1632,CROWNE PLAZA LAX YOKOSO,ACTIVE,PR0144476,['Hotels'],False,33.9461335790885,-118.388955756237,$$,3.0,320,AZg1sYbxb6WLvxZv5-VZpA
136,739,DAXB23E9M,04/28/2016 12:00:00 AM,DENNY'S #149,96,A,1,ROUTINE INSPECTION,EE0000699,635 W VERMONT AVE,LOS ANGELES,FA0018491,CA,90020,OW0009769,DENNY'S INC,RESTAURANT (61-150) SEATS HIGH RISK,1638,DENNY'S #149,ACTIVE,PR0045237,"['Diners', 'Breakfast & Brunch', 'American (Traditional)']",False,34.0627768247459,-118.291920572519,$,2.0,179,8Xj49jdp9CLlvs-w56dxWw
137,740,DA4B03W2H,04/28/2016 12:00:00 AM,THE FOUNDATION CENTER,98,A,1,ROUTINE INSPECTION,EE0000224,11633 S WESTERN AVE,LOS ANGELES,FA0165629,CA,90047,OW0128872,"NOAH'S DWELLING, LLC",RESTAURANT (151 + ) SEATS HIGH RISK,1641,THE FOUNDATION CENTER,ACTIVE,PR0153961,['Venues & Event Spaces'],False,33.9275853722486,-118.309407983852,blank,4.0,5,57mFlXN2MHOo2rADYUdfMQ
138,741,DAVA84AOL,04/28/2016 12:00:00 AM,SHUNJI,90,A,1,ROUTINE INSPECTION,EE0000629,12244 W PICO BLVD,LOS ANGELES,FA0033067,CA,90064,OW0038268,W&S LLC,RESTAURANT (0-30) SEATS HIGH RISK,1632,SHUNJI,ACTIVE,PR0035003,"['Japanese', 'Sushi Bars']",False,34.02836,-118.45161,$$$$,4.0,292,OpHC3mrACr17p4IfyDVAyw
139,743,DAVXRRWKE,04/28/2016 12:00:00 AM,LACMA PLAZA,99,A,1,ROUTINE INSPECTION,EE0000853,5905 W WILSHIRE BLVD,LOS ANGELES,FA0033980,CA,90036,OW0035686,THE PATINA GROUP NEWCO LLC,RESTAURANT (61-150) SEATS HIGH RISK,1638,LACMA PLAZA,ACTIVE,PR0041671,['American (Traditional)'],False,34.0631405203981,-118.357282520624,$$,2.5,101,bD8gJelUmmeE7TJWjlZeHw
140,746,DAQXYH0QU,04/28/2016 12:00:00 AM,RODEO MEXICAN GRILL #2,97,A,1,ROUTINE INSPECTION,EE0000721,1721 W OLYMPIC BLVD,LOS ANGELES,FA0046753,CA,90015,OW0014810,HAPPY RODEO INC,RESTAURANT (61-150) SEATS HIGH RISK,1638,RODEO MEXICAN GRILL #2,ACTIVE,PR0047247,['Mexican'],False,34.0502011713576,-118.276079158742,$$,3.5,260,dTs9nZSt2ht9-5T9yeIoiA
141,747,DAUKLE72D,04/28/2016 12:00:00 AM,CAFE LATTE,90,A,1,ROUTINE INSPECTION,EE0000884,3130 W OLYMPIC BLVD #100,LOS ANGELES,FA0164785,CA,90006,OW0128100,SJL HOLDINGS INC,RESTAURANT (31-60) SEATS MODERATE RISK,1634,CAFE LATTE,ACTIVE,PR0153073,['Coffee & Tea'],False,34.0523911,-118.3038483,$,3.5,40,1eBopkf2zYF3BWi2SWattQ
142,748,DAERCP6CI,04/28/2016 12:00:00 AM,GOOD MICROBREW & GRILL,94,A,1,ROUTINE INSPECTION,EE0000904,3725 W SUNSET BLVD,LOS ANGELES,FA0062882,CA,90026,OW0009348,DAJOVAN INC,RESTAURANT (61-150) SEATS HIGH RISK,1638,GOOD MICROBREW & GRILL,INACTIVE,PR0007953,['American (New)'],True,34.0908543,-118.2783261,$$,3.0,782,6pFcDFLqr08uGVQ-Gj8IbQ
