,serial_number,activity_date,facility_name,score,grade,service_code,service_description,employee_id,facility_address,facility_city,facility_id,facility_state,facility_zip,owner_id,owner_name,pe_description,program_element_pe,program_name,program_status,record_id,food_type,in_business,latitude,longitude,price,rating,review_count,yelp_id
0,DAN1DFWYH,12/02/2016 12:00:00 AM,STARBUCKS 22477,98,A,1,ROUTINE INSPECTION,EE0000366,2675 E OLYMPIC BLVD,LOS ANGELES,FA0160442,CA,90023,OW0033938,STARBUCKS COFFEE CORPORATION,RESTAURANT (31-60) SEATS LOW RISK,1633,STARBUCKS 22477,ACTIVE,PR0148534,['Coffee & Tea'],False,34.024787902832,-118.22021484375,$,2.5,120,CL50Xjsw93oEKofa_JWxmQ
1,DAESKFY6R,12/02/2016 12:00:00 AM,HOME RESTAURANT,93,A,1,ROUTINE INSPECTION,EE0000923,2500 RIVERSIDE DR,LOS ANGELES,FA0028868,CA,90039,OW0025489,"NAAV, INC.",RESTAURANT (151 + ) SEATS HIGH RISK,1641,HOME RESTAURANT,ACTIVE,PR0029136,"['American (New)', 'Breakfast & Brunch', 'Coffee & Tea']",False,34.1059761,-118.2567733,$$,3.5,1106,wcLpAXDF3dvJDrAJuV76tg
2,DAZK00M4C,12/02/2016 12:00:00 AM,STARBUCKS COFFEE #5877,98,A,1,ROUTINE INSPECTION,EE0000857,5453 HOLLYWOOD BLVD STE D,LOS ANGELES,FA0070985,CA,90027,OW0033938,STARBUCKS COFFEE CORPORATION,RESTAURANT (0-30) SEATS LOW RISK,1630,STARBUCK COFFEE #,ACTIVE,PR0038008,['Coffee & Tea'],False,34.101897013532,-118.30901442841,$,2.5,125,VxNpDZRIxDFU40HbcyIP8g
3,DAJ9OX3S2,12/02/2016 12:00:00 AM,LAS AMIGAS,91,A,1,ROUTINE INSPECTION,EE0000366,830 S SAN JULIAN ST,LOS ANGELES,FA0035403,CA,90014,OW0037433,"VEGA & SON, LLC",RESTAURANT (0-30) SEATS HIGH RISK,1632,LAS AMIGAS,INACTIVE,PR0012960,['Mexican'],True,34.03857,-118.25013,$,4.0,44,Pm1bXFj4Wb959y0aVHVIkA
4,DALECUOZW,12/02/2016 12:00:00 AM,CAFE 9,94,A,1,ROUTINE INSPECTION,EE0000660,453 S SPRING ST STE 900,LOS ANGELES,FA0142274,CA,90013-2013,OW0105446,"LO, CALVIN",RESTAURANT (0-30) SEATS HIGH RISK,1632,CAFE 9,ACTIVE,PR0128714,"['Breakfast & Brunch', 'Sandwiches']",False,34.0477867126465,-118.24974822998,$,4.0,92,nD2MxxcUgoT0PvJEilXtsw
5,DAPUIYKHX,12/02/2016 12:00:00 AM,TOM BERGIN'S,93,A,1,ROUTINE INSPECTION,EE0000853,840 S FAIRFAX AVE,LOS ANGELES,FA0160420,CA,90036,OW0125383,BERGIN'S PUBLIC HOUSE LLC,RESTAURANT (61-150) SEATS HIGH RISK,1638,TOM BERGIN'S,ACTIVE,PR0148511,"['Sports Bars', 'Irish Pub', 'American (Traditional)']",True,34.06007,-118.3625,$$,4.0,507,PjScb-Rj3wFcOEaFNRKxdA
6,DAGI9CUC1,12/02/2016 12:00:00 AM,HOY'S WOK,93,A,1,ROUTINE INSPECTION,EE0000835,7105 W SUNSET BLVD,LOS ANGELES,FA0029647,CA,90046,OW0017053,"IP, HUNG PAUL",RESTAURANT (31-60) SEATS HIGH RISK,1635,HOY'S WOK,ACTIVE,PR0044313,['Chinese'],False,34.0980793863251,-118.344662189484,$$,4.0,415,8fnmCiqpLdtU2XvmofwjpA
7,DAVJZ3ZZ1,12/02/2016 12:00:00 AM,GOLDEN LAKE EATERY,83,B,1,ROUTINE INSPECTION,EE0000740,424 W COLLEGE ST UNIT E,LOS ANGELES,FA0171816,CA,90012,OW0178876,RITH VAN SIENG,RESTAURANT (0-30) SEATS HIGH RISK,1632,GOLDEN LAKE EATERY,ACTIVE,PR0164270,"['Cambodian', 'Vietnamese']",False,34.0639257513722,-118.238599507771,$,4.5,146,GWkTJVxzieQM2KfaAk9sBQ
8,DAU08GZKB,12/02/2016 12:00:00 AM,JADE WOK CHINESE CUISINE,94,A,1,ROUTINE INSPECTION,EE0000740,625 W COLLEGE ST STE #109,LOS ANGELES,FA0029984,CA,90012,OW0017314,JADE WOK INC,RESTAURANT (0-30) SEATS HIGH RISK,1632,JADE WOK CHINESE CUISINE,ACTIVE,PR0041906,['Chinese'],False,34.06542,-118.24069,$,4.0,135,7_LW74I-UZPdIp1Az690pA
9,DA0CZ7QCG,12/02/2016 12:00:00 AM,SEALEGS WINE BAR,93,A,1,ROUTINE INSPECTION,EE0000633,200 WORLD WAY # T229,LOS ANGELES,FA0173867,CA,90045,OW0128045,SOCIAL CONCESSIONS LLC,RESTAURANT (31-60) SEATS HIGH RISK,1635,SEALEGS WINE BAR,ACTIVE,PR0166680,"['American (New)', 'Wine Bars']",False,33.9461775313555,-118.404049476721,$$,4.0,31,h0kA0m8yOvqjXqhsPTMjZg
10,DAS4AOZLR,12/02/2016 12:00:00 AM,BARNEY'S BEANERY,90,A,1,ROUTINE INSPECTION,EE0000633,200 WORLD WAY # 240,LOS ANGELES,FA0180023,CA,90045,OW0181193,SOCAL CONCESSIONS LLC,RESTAURANT (61-150) SEATS HIGH RISK,1638,BARNEY'S BEANERY,ACTIVE,PR0173732,['American (Traditional)'],False,33.9460440276497,-118.404237231352,$$,2.0,165,MfvB7sYka_Ac0YZs2h5uvg
11,DAAWAUCL0,12/02/2016 12:00:00 AM,LUXE HOTEL,96,A,1,ROUTINE INSPECTION,EE0000684,11461 W SUNSET BLVD,LOS ANGELES,FA0005168,CA,90049,OW0010584,E H SUMMIT INC,RESTAURANT (151 + ) SEATS HIGH RISK,1641,LUXE HOTEL BANQUET KITCHEN,ACTIVE,PR0028968,['Hotels'],False,34.07294,-118.46915,$$$,3.0,215,jTRBtDizP-_hvoS3UmIVTA
12,DAWA9RSJN,12/02/2016 12:00:00 AM,ASTRO FAMILY RESTAURANT,94,A,1,ROUTINE INSPECTION,EE0000923,2300 FLETCHER DR,LOS ANGELES,FA0057786,CA,90039,OW0005593,C I G RESTAURANT INC DBA,RESTAURANT (61-150) SEATS HIGH RISK,1638,ASTRO FAMILY RESTAURANT,ACTIVE,PR0001135,"['Diners', 'American (Traditional)', 'Breakfast & Brunch']",False,34.104563,-118.258754,$$,3.0,320,iCVK2meVbQeRkQ9TLxWxGg
13,DAD1RXVP8,12/02/2016 12:00:00 AM,HOBOKEN,90,A,1,ROUTINE INSPECTION,EE0000338,2323 WESTWOOD BLVD,LOS ANGELES,FA0016951,CA,90064,OW0036547,TRIPLE C & T INC,RESTAURANT (61-150) SEATS HIGH RISK,1638,HOBOKEN,ACTIVE,PR0037304,"['Italian', 'Pizza', 'Sandwiches']",False,34.04164,-118.43024,$$,3.0,57,Pq301TL9bS0sgzzILU8-GQ
14,DALR0FL05,12/02/2016 12:00:00 AM,TRIMANA,99,A,1,ROUTINE INSPECTION,EE0000144,3415 S SEPULVEDA BLVD # 160,LOS ANGELES,FA0072945,CA,90034,OW0016267,"HONG, AMY",RESTAURANT (0-30) SEATS MODERATE RISK,1631,TRIMANA,ACTIVE,PR0011708,['Sandwiches'],False,34.02053,-118.42395,$,3.5,7,jTaE-R8tVPIoVPnznX7SOg
15,DAULHUS0P,12/02/2016 12:00:00 AM,THE BEL-AIR,99,A,1,ROUTINE INSPECTION,EE0000684,662 N SEPULVEDA BLVD,LOS ANGELES,FA0058142,CA,90049,OW0036750,TWELFTH OF MAY LLC,RESTAURANT (0-30) SEATS LOW RISK,1630,THE BEL-AIR WARMING,ACTIVE,PR0029915,"['American (New)', 'Seafood', 'Cocktail Bars']",False,34.0773095869577,-118.468819282916,$$$,4.0,171,7s0s_rBFKPxt2B9xBMmQsw
16,DAULHUS0P,12/02/2016 12:00:00 AM,THE BEL-AIR,99,A,1,ROUTINE INSPECTION,EE0000684,662 N SEPULVEDA BLVD,LOS ANGELES,FA0058142,CA,90049,OW0036750,TWELFTH OF MAY LLC,RESTAURANT (0-30) SEATS LOW RISK,1630,THE BEL-AIR WARMING,ACTIVE,PR0029915,"['American (New)', 'Seafood', 'Cocktail Bars']",False,34.0773095869577,-118.468819282916,$$$,4.0,171,7s0s_rBFKPxt2B9xBMmQsw
17,DAJCALAXY,12/02/2016 12:00:00 AM,THE BEL-AIR,90,A,1,ROUTINE INSPECTION,EE0000684,662 N SEPULVEDA BLVD,LOS ANGELES,FA0058142,CA,90049,OW0036750,TWELFTH OF MAY LLC,RESTAURANT (151 + ) SEATS HIGH RISK,1641,THE BEL-AIR SHACK / MAIN KITCHEN,ACTIVE,PR0123192,"['American (New)', 'Seafood', 'Cocktail Bars']",False,34.0773095869577,-118.468819282916,$$$,4.0,171,7s0s_rBFKPxt2B9xBMmQsw
18,DAJCALAXY,12/02/2016 12:00:00 AM,THE BEL-AIR,90,A,1,ROUTINE INSPECTION,EE0000684,662 N SEPULVEDA BLVD,LOS ANGELES,FA0058142,CA,90049,OW0036750,TWELFTH OF MAY LLC,RESTAURANT (151 + ) SEATS HIGH RISK,1641,THE BEL-AIR SHACK / MAIN KITCHEN,ACTIVE,PR0123192,"['American (New)', 'Seafood', 'Cocktail Bars']",False,34.0773095869577,-118.468819282916,$$$,4.0,171,7s0s_rBFKPxt2B9xBMmQsw
19,DAK2PIVFN,12/02/2016 12:00:00 AM,PATTAYA BAY THAI RESTAURANT,90,A,1,ROUTINE INSPECTION,EE0000846,1727 N VERMONT AVE STE 103,LOS ANGELES,FA0177440,CA,90027,OW0183362,GIVE & CHAN LLC,RESTAURANT (31-60) SEATS HIGH RISK,1635,PATTAYA BAY THAI RESTAURANT,ACTIVE,PR0170437,['Thai'],False,34.102548,-118.292194,$$,3.5,337,fEkSGQylqjsLB9GN3N2tvA
20,DAVCXDWYH,12/02/2016 12:00:00 AM,CHINATOWN EXPRESS #28,90,A,1,ROUTINE INSPECTION,EE0001064,519 W MANCHESTER AVE STE 106,LOS ANGELES,FA0059722,CA,90044,OW0025961,"NGOR, CHAN",RESTAURANT (0-30) SEATS HIGH RISK,1632,CHINATOWN EXPRESS #28,ACTIVE,PR0007999,"['Chinese', 'Fast Food']",False,33.9603899,-118.28344,$,3.5,10,fssGilOou-xRH_DdVEkEiQ
21,DARBKYMZJ,12/02/2016 12:00:00 AM,MANICHI RAMEN,90,A,1,ROUTINE INSPECTION,EE0001058,321 1/4 E 1ST ST,LOS ANGELES,FA0166432,CA,90012,OW0129577,MANICHI GLOBAL USA INC,RESTAURANT (31-60) SEATS HIGH RISK,1635,MANICHI RAMEN,INACTIVE,PR0156746,['Ramen'],False,34.0500444050423,-118.240382967495,$$,4.0,645,z1XXH6A872rVz-cg-HH3pg
22,DAL53XF2M,12/02/2016 12:00:00 AM,TACOS LOS MACHETTES INC,90,A,1,ROUTINE INSPECTION,EE0001073,152 W MANCHESTER AVE,LOS ANGELES,FA0177012,CA,90003,OW0182991,SALVADOR LLAMAS,RESTAURANT (0-30) SEATS HIGH RISK,1632,TACOS LOS MACHELETTES,ACTIVE,PR0169953,['Tacos'],False,33.9599030419422,-118.27568013221,blank,3.5,3,BJc6ppUdG6anGQKVZ2M2_w
23,DAWAHSGOH,12/02/2016 12:00:00 AM,CANO'S MEXICAN RESTAURANT,95,A,1,ROUTINE INSPECTION,EE0001073,258 W MANCHESTER AVE,LOS ANGELES,FA0137355,CA,90003,OW0100265,GUADALUPE CANO C,RESTAURANT (0-30) SEATS HIGH RISK,1632,CANO'S MEXICAN RESTAURANT,ACTIVE,PR0121343,['Mexican'],False,33.9600357413292,-118.277306556702,$$,5.0,2,NRSi2jSCOUyqmbUhNjzzeA
24,DATSZB02D,12/02/2016 12:00:00 AM,ARA'S PASTRY,95,A,1,ROUTINE INSPECTION,EE0000846,4945 HOLLYWOOD BLVD,LOS ANGELES,FA0006722,CA,90027,OW0009434,DAOU NASRI,RESTAURANT (0-30) SEATS MODERATE RISK,1631,ARA'S PASTRY,ACTIVE,PR0023657,['Bakeries'],True,34.1018949,-118.2974824,$$,4.0,58,YZFmGDDDliYQVdMzlpKvLw
25,DA9FDM0C3,12/02/2016 12:00:00 AM,MIKE DELI,98,A,1,ROUTINE INSPECTION,EE0001058,238 E 1ST ST,LOS ANGELES,FA0239948,CA,90012,OW0236136,CANDY KISSWANI,RESTAURANT (0-30) SEATS MODERATE RISK,1631,MIKE DELI,ACTIVE,PR0187953,"['Delis', 'Breakfast & Brunch', 'Sandwiches']",False,34.0506172180176,-118.241546630859,$,4.5,181,aECWbqZMtAlDkFDq_fGQ-w
26,DADSGOUMS,12/02/2016 12:00:00 AM,PAPILLON INTERNATIONAL BAKERY,91,A,1,ROUTINE INSPECTION,EE0000846,5019 W HOLLYWOOD BLVD,LOS ANGELES,FA0137484,CA,90027,OW0100511,"GLENDALE FRENCH BREAD BAKERY, INC.",RESTAURANT (0-30) SEATS HIGH RISK,1632,PAPILLON INTERNATIONAL BAKERY,ACTIVE,PR0121577,"['Bakeries', 'Patisserie/Cake Shop']",False,34.1018616334339,-118.298906411245,$,4.5,280,HMLmVDW9F92nSzeAAZ7mFg
27,DASRVIRHF,12/02/2016 12:00:00 AM,BENTO MAN,92,A,1,ROUTINE INSPECTION,EE0001058,228 E 1ST ST,LOS ANGELES,FA0138022,CA,90012,OW0101430,BOWLMAN FAMILY,RESTAURANT (0-30) SEATS HIGH RISK,1632,BENTO MAN,ACTIVE,PR0122251,['Japanese'],False,34.050749,-118.241793,$,4.0,99,-Ds4SolB6IFbYJaG7vPi-Q
28,DAXQ7EB69,12/02/2016 12:00:00 AM,FAMILY MART,92,A,1,ROUTINE INSPECTION,EE0001058,339 E 1ST ST,LOS ANGELES,FA0022565,CA,90012,OW0100897,"FAMILY MART, INC",RESTAURANT (0-30) SEATS MODERATE RISK,1631,FAMILY MART,ACTIVE,PR0007962,['Convenience Stores'],False,34.0498977,-118.2399726,$,3.0,44,78FbGrrvAXnK8DTOirxMXw
29,DAW2PW7EO,12/01/2016 12:00:00 AM,SOL FISH MARKET,91,A,1,ROUTINE INSPECTION,EE0000725,12000 S CENTRAL AVE,LOS ANGELES,FA0240585,CA,90059,OW0236656,YOUNGLEE FISH MARKET INC,RESTAURANT (0-30) SEATS MODERATE RISK,1631,SOL FISH MARKET,ACTIVE,PR0188613,['Seafood Markets'],False,33.92344,-118.25391,$,4.0,9,l6-pZ4f7UCWgMHzNhTG8eQ
30,DA350PEUI,12/01/2016 12:00:00 AM,HYATT REGENCY LAX,92,A,1,ROUTINE INSPECTION,EE0000733,6225 W CENTURY BLVD,LOS ANGELES,FA0159892,CA,90045,OW0124885,"HUMNIT HOTEL AT LAX, LLC",RESTAURANT (151 + ) SEATS HIGH RISK,1641,HYATT REGENCY LAX - PALMIRA RESTAURANT,ACTIVE,PR0147953,"['Hotels', 'Venues & Event Spaces']",False,33.94625,-118.39509,$$,3.5,41,LOhz8WHkGdGFNk-T1FsYww
31,DA350PEUI,12/01/2016 12:00:00 AM,HYATT REGENCY LAX,92,A,1,ROUTINE INSPECTION,EE0000733,6225 W CENTURY BLVD,LOS ANGELES,FA0159892,CA,90045,OW0124885,"HUMNIT HOTEL AT LAX, LLC",RESTAURANT (151 + ) SEATS HIGH RISK,1641,HYATT REGENCY LAX - PALMIRA RESTAURANT,ACTIVE,PR0147953,"['Hotels', 'Venues & Event Spaces']",False,33.94625,-118.39509,$$,3.5,41,LOhz8WHkGdGFNk-T1FsYww
32,DA350PEUI,12/01/2016 12:00:00 AM,HYATT REGENCY LAX,92,A,1,ROUTINE INSPECTION,EE0000733,6225 W CENTURY BLVD,LOS ANGELES,FA0159892,CA,90045,OW0124885,"HUMNIT HOTEL AT LAX, LLC",RESTAURANT (151 + ) SEATS HIGH RISK,1641,HYATT REGENCY LAX - PALMIRA RESTAURANT,ACTIVE,PR0147953,"['Hotels', 'Venues & Event Spaces']",False,33.94625,-118.39509,$$,3.5,41,LOhz8WHkGdGFNk-T1FsYww
33,DA350PEUI,12/01/2016 12:00:00 AM,HYATT REGENCY LAX,92,A,1,ROUTINE INSPECTION,EE0000733,6225 W CENTURY BLVD,LOS ANGELES,FA0159892,CA,90045,OW0124885,"HUMNIT HOTEL AT LAX, LLC",RESTAURANT (151 + ) SEATS HIGH RISK,1641,HYATT REGENCY LAX - PALMIRA RESTAURANT,ACTIVE,PR0147953,"['Hotels', 'Venues & Event Spaces']",False,33.94625,-118.39509,$$,3.5,41,LOhz8WHkGdGFNk-T1FsYww
34,DA0PZTHIT,12/01/2016 12:00:00 AM,HYATT REGENCY LAX,96,A,1,ROUTINE INSPECTION,EE0000733,6225 W CENTURY BLVD,LOS ANGELES,FA0159892,CA,90045,OW0124885,"HUMNIT HOTEL AT LAX, LLC",RESTAURANT (151 + ) SEATS HIGH RISK,1641,HYATT REGENCY LAX - BANQUET KITCHEN,ACTIVE,PR0147934,"['Hotels', 'Venues & Event Spaces']",False,33.94625,-118.39509,$$,3.5,41,LOhz8WHkGdGFNk-T1FsYww
35,DA0PZTHIT,12/01/2016 12:00:00 AM,HYATT REGENCY LAX,96,A,1,ROUTINE INSPECTION,EE0000733,6225 W CENTURY BLVD,LOS ANGELES,FA0159892,CA,90045,OW0124885,"HUMNIT HOTEL AT LAX, LLC",RESTAURANT (151 + ) SEATS HIGH RISK,1641,HYATT REGENCY LAX - BANQUET KITCHEN,ACTIVE,PR0147934,"['Hotels', 'Venues & Event Spaces']",False,33.94625,-118.39509,$$,3.5,41,LOhz8WHkGdGFNk-T1FsYww
36,DA0PZTHIT,12/01/2016 12:00:00 AM,HYATT REGENCY LAX,96,A,1,ROUTINE INSPECTION,EE0000733,6225 W CENTURY BLVD,LOS ANGELES,FA0159892,CA,90045,OW0124885,"HUMNIT HOTEL AT LAX, LLC",RESTAURANT (151 + ) SEATS HIGH RISK,1641,HYATT REGENCY LAX - BANQUET KITCHEN,ACTIVE,PR0147934,"['Hotels', 'Venues & Event Spaces']",False,33.94625,-118.39509,$$,3.5,41,LOhz8WHkGdGFNk-T1FsYww
37,DA0PZTHIT,12/01/2016 12:00:00 AM,HYATT REGENCY LAX,96,A,1,ROUTINE INSPECTION,EE0000733,6225 W CENTURY BLVD,LOS ANGELES,FA0159892,CA,90045,OW0124885,"HUMNIT HOTEL AT LAX, LLC",RESTAURANT (151 + ) SEATS HIGH RISK,1641,HYATT REGENCY LAX - BANQUET KITCHEN,ACTIVE,PR0147934,"['Hotels', 'Venues & Event Spaces']",False,33.94625,-118.39509,$$,3.5,41,LOhz8WHkGdGFNk-T1FsYww
38,DAD1PL050,12/01/2016 12:00:00 AM,HYATT REGENCY LAX,95,A,1,ROUTINE INSPECTION,EE0000733,6225 W CENTURY BLVD,LOS ANGELES,FA0159892,CA,90045,OW0124885,"HUMNIT HOTEL AT LAX, LLC",RESTAURANT (61-150) SEATS HIGH RISK,1638,HYATT REGENCY LAX - EMPLOYEE CAFE,ACTIVE,PR0147966,"['Hotels', 'Venues & Event Spaces']",False,33.94625,-118.39509,$$,3.5,41,LOhz8WHkGdGFNk-T1FsYww
39,DAD1PL050,12/01/2016 12:00:00 AM,HYATT REGENCY LAX,95,A,1,ROUTINE INSPECTION,EE0000733,6225 W CENTURY BLVD,LOS ANGELES,FA0159892,CA,90045,OW0124885,"HUMNIT HOTEL AT LAX, LLC",RESTAURANT (61-150) SEATS HIGH RISK,1638,HYATT REGENCY LAX - EMPLOYEE CAFE,ACTIVE,PR0147966,"['Hotels', 'Venues & Event Spaces']",False,33.94625,-118.39509,$$,3.5,41,LOhz8WHkGdGFNk-T1FsYww
40,DAD1PL050,12/01/2016 12:00:00 AM,HYATT REGENCY LAX,95,A,1,ROUTINE INSPECTION,EE0000733,6225 W CENTURY BLVD,LOS ANGELES,FA0159892,CA,90045,OW0124885,"HUMNIT HOTEL AT LAX, LLC",RESTAURANT (61-150) SEATS HIGH RISK,1638,HYATT REGENCY LAX - EMPLOYEE CAFE,ACTIVE,PR0147966,"['Hotels', 'Venues & Event Spaces']",False,33.94625,-118.39509,$$,3.5,41,LOhz8WHkGdGFNk-T1FsYww
41,DAD1PL050,12/01/2016 12:00:00 AM,HYATT REGENCY LAX,95,A,1,ROUTINE INSPECTION,EE0000733,6225 W CENTURY BLVD,LOS ANGELES,FA0159892,CA,90045,OW0124885,"HUMNIT HOTEL AT LAX, LLC",RESTAURANT (61-150) SEATS HIGH RISK,1638,HYATT REGENCY LAX - EMPLOYEE CAFE,ACTIVE,PR0147966,"['Hotels', 'Venues & Event Spaces']",False,33.94625,-118.39509,$$,3.5,41,LOhz8WHkGdGFNk-T1FsYww
42,DAAIDRKT2,12/01/2016 12:00:00 AM,HYATT REGENCY LAX,95,A,1,ROUTINE INSPECTION,EE0000733,6225 W CENTURY BLVD,LOS ANGELES,FA0159892,CA,90045,OW0124885,"HUMNIT HOTEL AT LAX, LLC",RESTAURANT (0-30) SEATS LOW RISK,1630,HYATT REGENCY LAX- CONCORD LOBBY BAR,ACTIVE,PR0147954,"['Hotels', 'Venues & Event Spaces']",False,33.94625,-118.39509,$$,3.5,41,LOhz8WHkGdGFNk-T1FsYww
43,DAAIDRKT2,12/01/2016 12:00:00 AM,HYATT REGENCY LAX,95,A,1,ROUTINE INSPECTION,EE0000733,6225 W CENTURY BLVD,LOS ANGELES,FA0159892,CA,90045,OW0124885,"HUMNIT HOTEL AT LAX, LLC",RESTAURANT (0-30) SEATS LOW RISK,1630,HYATT REGENCY LAX- CONCORD LOBBY BAR,ACTIVE,PR0147954,"['Hotels', 'Venues & Event Spaces']",False,33.94625,-118.39509,$$,3.5,41,LOhz8WHkGdGFNk-T1FsYww
44,DAAIDRKT2,12/01/2016 12:00:00 AM,HYATT REGENCY LAX,95,A,1,ROUTINE INSPECTION,EE0000733,6225 W CENTURY BLVD,LOS ANGELES,FA0159892,CA,90045,OW0124885,"HUMNIT HOTEL AT LAX, LLC",RESTAURANT (0-30) SEATS LOW RISK,1630,HYATT REGENCY LAX- CONCORD LOBBY BAR,ACTIVE,PR0147954,"['Hotels', 'Venues & Event Spaces']",False,33.94625,-118.39509,$$,3.5,41,LOhz8WHkGdGFNk-T1FsYww
45,DAAIDRKT2,12/01/2016 12:00:00 AM,HYATT REGENCY LAX,95,A,1,ROUTINE INSPECTION,EE0000733,6225 W CENTURY BLVD,LOS ANGELES,FA0159892,CA,90045,OW0124885,"HUMNIT HOTEL AT LAX, LLC",RESTAURANT (0-30) SEATS LOW RISK,1630,HYATT REGENCY LAX- CONCORD LOBBY BAR,ACTIVE,PR0147954,"['Hotels', 'Venues & Event Spaces']",False,33.94625,-118.39509,$$,3.5,41,LOhz8WHkGdGFNk-T1FsYww
46,DAOEBATEL,12/01/2016 12:00:00 AM,KAKACH DELI,94,A,1,ROUTINE INSPECTION,EE0000721,718 S HILL ST # 109,LOS ANGELES,FA0064643,CA,90014,OW0031812,SARGSYAN ALISA,RESTAURANT (31-60) SEATS HIGH RISK,1635,KAKACH DELI,ACTIVE,PR0019625,"['Delis', 'Middle Eastern']",True,34.04515,-118.25463,$,4.5,24,T4RDz0hRkAFAf-uNKvCF3g
47,DAAZNND4Z,12/01/2016 12:00:00 AM,CALIFORNIA PIZZA KITCHEN,97,A,1,ROUTINE INSPECTION,EE0000117,3607 TROUSDALE PKWY,LOS ANGELES,FA0012540,CA,90089,OW0037014,USC HOSPITALITY SERVICES,RESTAURANT (31-60) SEATS HIGH RISK,1635,CALIFORNIA PIZZA KITCHEN,ACTIVE,PR0010672,"['Dive Bars', 'Sports Bars', 'Burgers']",False,34.019963,-118.286161,$$,3.5,116,DXFhzx94myitMxmBhsdz8A
48,DAAZNND4Z,12/01/2016 12:00:00 AM,CALIFORNIA PIZZA KITCHEN,97,A,1,ROUTINE INSPECTION,EE0000117,3607 TROUSDALE PKWY,LOS ANGELES,FA0012540,CA,90089,OW0037014,USC HOSPITALITY SERVICES,RESTAURANT (31-60) SEATS HIGH RISK,1635,CALIFORNIA PIZZA KITCHEN,ACTIVE,PR0010672,['Mexican'],False,34.0202222542573,-118.286540234612,$,2.5,35,qcUT0Wz4rXbjINy6L7Lpkw
49,DAS66GTBC,12/01/2016 12:00:00 AM,USC MAIN KITCHEN-BASEMENT,98,A,1,ROUTINE INSPECTION,EE0000117,3607 TROUSDALE PKWY,LOS ANGELES,FA0039177,CA,90089,OW0037014,USC HOSPITALITY SERVICES,RESTAURANT (151 + ) SEATS HIGH RISK,1641,USC MAIN KITCHEN-BASEMENT,ACTIVE,PR0014265,"['Dive Bars', 'Sports Bars', 'Burgers']",False,34.019963,-118.286161,$$,3.5,116,DXFhzx94myitMxmBhsdz8A
50,DAS66GTBC,12/01/2016 12:00:00 AM,USC MAIN KITCHEN-BASEMENT,98,A,1,ROUTINE INSPECTION,EE0000117,3607 TROUSDALE PKWY,LOS ANGELES,FA0039177,CA,90089,OW0037014,USC HOSPITALITY SERVICES,RESTAURANT (151 + ) SEATS HIGH RISK,1641,USC MAIN KITCHEN-BASEMENT,ACTIVE,PR0014265,['Mexican'],False,34.0202222542573,-118.286540234612,$,2.5,35,qcUT0Wz4rXbjINy6L7Lpkw
51,DAHY3J7ID,12/01/2016 12:00:00 AM,TRADITIONS PUB,97,A,1,ROUTINE INSPECTION,EE0000117,3607 TROUSDALE PKWY,LOS ANGELES,FA0053086,CA,90089,OW0037014,USC HOSPITALITY SERVICES,RESTAURANT (151 + ) SEATS MODERATE RISK,1640,TRADITIONS PUB,ACTIVE,PR0027845,"['Dive Bars', 'Sports Bars', 'Burgers']",False,34.019963,-118.286161,$$,3.5,116,DXFhzx94myitMxmBhsdz8A
52,DAHY3J7ID,12/01/2016 12:00:00 AM,TRADITIONS PUB,97,A,1,ROUTINE INSPECTION,EE0000117,3607 TROUSDALE PKWY,LOS ANGELES,FA0053086,CA,90089,OW0037014,USC HOSPITALITY SERVICES,RESTAURANT (151 + ) SEATS MODERATE RISK,1640,TRADITIONS PUB,ACTIVE,PR0027845,['Mexican'],False,34.0202222542573,-118.286540234612,$,2.5,35,qcUT0Wz4rXbjINy6L7Lpkw
53,DA6SNHWDH,10/11/2016 12:00:00 AM,VERDE,97,A,1,ROUTINE INSPECTION,EE0000117,3607 TROUSDALE PKWY,LOS ANGELES,FA0138674,CA,90089,OW0037014,USC HOSPITALITY SERVICES,RESTAURANT (31-60) SEATS HIGH RISK,1635,VERDE,ACTIVE,PR0123028,"['Dive Bars', 'Sports Bars', 'Burgers']",False,34.019963,-118.286161,$$,3.5,116,DXFhzx94myitMxmBhsdz8A
54,DA6SNHWDH,10/11/2016 12:00:00 AM,VERDE,97,A,1,ROUTINE INSPECTION,EE0000117,3607 TROUSDALE PKWY,LOS ANGELES,FA0138674,CA,90089,OW0037014,USC HOSPITALITY SERVICES,RESTAURANT (31-60) SEATS HIGH RISK,1635,VERDE,ACTIVE,PR0123028,['Mexican'],False,34.0202222542573,-118.286540234612,$,2.5,35,qcUT0Wz4rXbjINy6L7Lpkw
55,DAY30GFMX,12/01/2016 12:00:00 AM,CLIFFS,90,A,1,ROUTINE INSPECTION,EE0000904,3626 W SUNSET BLVD,LOS ANGELES,FA0015849,CA,90026,OW0008362,CLIFFS LLC,RESTAURANT (61-150) SEATS HIGH RISK,1638,CLIFFS,ACTIVE,PR0020076,"['Breakfast & Brunch', 'American (New)']",False,34.0901908874512,-118.277725219727,$$$,4.0,1459,fhtBoSbJC45QQ4rYrFHj6Q
56,DAETPA9L2,12/01/2016 12:00:00 AM,PUPUSERIA ACAJUTLA,93,A,1,ROUTINE INSPECTION,EE0001025,608 E 59TH ST,LOS ANGELES,FA0044741,CA,90001,OW0036249,MARIA EUGENIA TORRES,RESTAURANT (0-30) SEATS HIGH RISK,1632,PUPUSERIA ACAJUTLA,INACTIVE,PR0023063,['Salvadoran'],False,33.9867057800293,-118.26473236084,$,4.5,11,x4byxKSdX0ADJunAXEKVVA
57,DAPZ7CJA0,12/01/2016 12:00:00 AM,UMAMI,96,A,1,ROUTINE INSPECTION,EE0000699,3300 W 6TH ST # 1,LOS ANGELES,FA0225478,CA,90020,OW0229740,HND WIDE CORP.,RESTAURANT (31-60) SEATS HIGH RISK,1635,UMAMI,ACTIVE,PR0180801,"['Sushi Bars', 'Japanese']",False,34.0634163570635,-118.294356672372,$$,3.5,75,jHm-h0Ke13d2AlguZyPr6A
58,DAUCQJ0RD,12/01/2016 12:00:00 AM,LENNY'S BAKERY,96,A,1,ROUTINE INSPECTION,EE0000338,2379 WESTWOOD BLVD,LOS ANGELES,FA0034836,CA,90064,OW0000729,2379 WESTWOOD INVESTOR INC.,RESTAURANT (0-30) SEATS MODERATE RISK,1631,LENNY'S BAKERY,INACTIVE,PR0037728,"['Delis', 'Burgers', 'Sandwiches']",False,34.04063,-118.42937,$$,3.5,955,Szp5hPm0jfU2M535O-UAYA
59,DANFQ7IAC,12/01/2016 12:00:00 AM,POLLOS EL GUERO,93,A,1,ROUTINE INSPECTION,EE0001025,274 E SLAUSON AVE,LOS ANGELES,FA0044407,CA,90011,OW0022205,"LOPEZ, SANDRA",RESTAURANT (0-30) SEATS HIGH RISK,1632,POLLOS EL GUERO,ACTIVE,PR0037481,['Mexican'],False,33.98905,-118.26978,$,4.0,25,P35cEyGMMmFOe98dysBLQA
60,DAWIYN5VR,12/01/2016 12:00:00 AM,SHERATON LOS ANGELES DOWNTOWN,99,A,1,ROUTINE INSPECTION,EE0000721,711 S HOPE ST,LOS ANGELES,FA0175246,CA,90017,OW0181821,"NREA-TCR 711 OPERATING COMPANY, LLC",RESTAURANT (61-150) SEATS LOW RISK,1636,SHERATON LOS ANGELES DOWNTOWN (BAR),ACTIVE,PR0168364,['Hotels'],False,34.04763,-118.25889,$$,3.0,400,tT2OepXYkeFih_oGfScgGQ
61,DAWIYN5VR,12/01/2016 12:00:00 AM,SHERATON LOS ANGELES DOWNTOWN,99,A,1,ROUTINE INSPECTION,EE0000721,711 S HOPE ST,LOS ANGELES,FA0175246,CA,90017,OW0181821,"NREA-TCR 711 OPERATING COMPANY, LLC",RESTAURANT (61-150) SEATS LOW RISK,1636,SHERATON LOS ANGELES DOWNTOWN (BAR),ACTIVE,PR0168364,['Hotels'],False,34.04763,-118.25889,$$,3.0,400,tT2OepXYkeFih_oGfScgGQ
62,DAGO1U55I,12/01/2016 12:00:00 AM,SHERATON LOS ANGELES DOWNTOWN,98,A,1,ROUTINE INSPECTION,EE0000721,711 S HOPE ST,LOS ANGELES,FA0175246,CA,90017,OW0181821,"NREA-TCR 711 OPERATING COMPANY, LLC",RESTAURANT (151 + ) SEATS HIGH RISK,1641,SHERATON LOS ANGELES DOWNTOWN (MAIN KITCHEN),ACTIVE,PR0168367,['Hotels'],False,34.04763,-118.25889,$$,3.0,400,tT2OepXYkeFih_oGfScgGQ
63,DAGO1U55I,12/01/2016 12:00:00 AM,SHERATON LOS ANGELES DOWNTOWN,98,A,1,ROUTINE INSPECTION,EE0000721,711 S HOPE ST,LOS ANGELES,FA0175246,CA,90017,OW0181821,"NREA-TCR 711 OPERATING COMPANY, LLC",RESTAURANT (151 + ) SEATS HIGH RISK,1641,SHERATON LOS ANGELES DOWNTOWN (MAIN KITCHEN),ACTIVE,PR0168367,['Hotels'],False,34.04763,-118.25889,$$,3.0,400,tT2OepXYkeFih_oGfScgGQ
64,DAFZDQJSN,12/01/2016 12:00:00 AM,FERTITTA CAFE,98,A,1,ROUTINE INSPECTION,EE0000117,610 CHILD'S WAY,LOS ANGELES,FA0240113,CA,90089,OW0227063,USC HOSPITALITY SERVICES,RESTAURANT (151 + ) SEATS HIGH RISK,1641,FERTITTA CAFE,ACTIVE,PR0188119,"['Chinese', 'Sushi Bars', 'Cafes']",False,34.01893336114,-118.282163925349,blank,3.0,4,Ha5sjSzEd2eIV8WrSqW0zg
65,DAAN0XRJU,12/01/2016 12:00:00 AM,UMAMI CATESEN,95,A,1,ROUTINE INSPECTION,EE0000721,852 S BROADWAY,LOS ANGELES,FA0073070,CA,90014,OW0036844,UMAMICATESSEN LLC,RESTAURANT (151 + ) SEATS HIGH RISK,1641,UMAMI CATESEN,ACTIVE,PR0034292,"['Burgers', 'American (New)', 'Gastropubs']",False,34.0423915,-118.2557883,$$,3.5,1119,tP4_QWHnfoa6U8TO0r_REA
66,DAKFCESE1,12/01/2016 12:00:00 AM,SUGAR FACTORY CONCESSION & CANDY STORE,94,A,1,ROUTINE INSPECTION,EE0000835,6925 hollywood BLVD,LOS ANGELES,FA0222147,CA,90028-6103,OW0227048,"SUGAR FACTORY CHINESE THEATER HOLLYWOOD, LLC",RESTAURANT (0-30) SEATS MODERATE RISK,1631,SUGAR FACTORY CONCESSION & CANDY STORE,INACTIVE,PR0177128,"['Creperies', 'Juice Bars & Smoothies', 'Candy Stores']",True,34.1013903426884,-118.34080816009,blank,1.0,2,fBesIYRc7-_UQLwxv98lwA
67,DALXTX2CM,12/01/2016 12:00:00 AM,NOODLE WORLD JR.,93,A,1,ROUTINE INSPECTION,EE0000733,8636 S SEPULVEDA BLVD,LOS ANGELES,FA0174543,CA,90045,OW0181191,MEKCO S INC.,RESTAURANT (31-60) SEATS HIGH RISK,1635,NOODLE WORLD JR.,ACTIVE,PR0167557,"['Noodles', 'Bubble Tea', 'Asian Fusion']",False,33.9587478637695,-118.39575958252,$,3.5,237,d7ylcyNfECArg4zgBw8YqQ
68,DAOC11SKS,12/01/2016 12:00:00 AM,NIZAM INDIAN CUISINE,92,A,1,ROUTINE INSPECTION,EE0000338,10871 W PICO BLVD,LOS ANGELES,FA0042522,CA,90064,OW0031228,"SAHOTA, SUKHDEV SINGH",RESTAURANT (31-60) SEATS HIGH RISK,1635,NIZAM INDIAN CUISINE,INACTIVE,PR0034381,['Indian'],False,34.03991,-118.42906,$$,4.0,315,6zO7ihNqwMKyQDtgkyRbZg
69,DA6S1ILKB,12/01/2016 12:00:00 AM,WHOLE FOODS365,91,A,1,ROUTINE INSPECTION,EE0000923,2520 GLENDALE BLVD,LOS ANGELES,FA0225617,CA,90039,OW0038850,"WHOLE FOODS MARKET, INC.",RESTAURANT (0-30) SEATS HIGH RISK,1632,WHOLE FOODS365 - KITCHEN,ACTIVE,PR0180936,['Grocery'],False,34.1028766,-118.2584507,$$,3.0,340,1X-vXK7LTkkSIxUu3M8M-A
70,DA6S1ILKB,12/01/2016 12:00:00 AM,WHOLE FOODS365,91,A,1,ROUTINE INSPECTION,EE0000923,2520 GLENDALE BLVD,LOS ANGELES,FA0225617,CA,90039,OW0038850,"WHOLE FOODS MARKET, INC.",RESTAURANT (0-30) SEATS HIGH RISK,1632,WHOLE FOODS365 - KITCHEN,ACTIVE,PR0180936,"['Vegan', 'Burgers', 'Sandwiches']",False,34.1034616314329,-118.258644203241,$$,4.0,692,45U2ip1V3vHyHDh8RziUlw
71,DAHHT2KM9,12/01/2016 12:00:00 AM,BY CHOLE,98,A,1,ROUTINE INSPECTION,EE0000923,2520 GLENDALE BLVD,LOS ANGELES,FA0225682,CA,90039-3220,OW0229928,"BC SILVER LAKE, LLC",RESTAURANT (0-30) SEATS HIGH RISK,1632,BY CHOLE,ACTIVE,PR0180989,['Grocery'],False,34.1028766,-118.2584507,$$,3.0,340,1X-vXK7LTkkSIxUu3M8M-A
72,DAHHT2KM9,12/01/2016 12:00:00 AM,BY CHOLE,98,A,1,ROUTINE INSPECTION,EE0000923,2520 GLENDALE BLVD,LOS ANGELES,FA0225682,CA,90039-3220,OW0229928,"BC SILVER LAKE, LLC",RESTAURANT (0-30) SEATS HIGH RISK,1632,BY CHOLE,ACTIVE,PR0180989,"['Vegan', 'Burgers', 'Sandwiches']",False,34.1034616314329,-118.258644203241,$$,4.0,692,45U2ip1V3vHyHDh8RziUlw
73,DAHMY2LEW,12/01/2016 12:00:00 AM,SUBWAY SANDWICHES,97,A,1,ROUTINE INSPECTION,EE0000725,611 E IMPERIAL HWY STE #105,LOS ANGELES,FA0049953,CA,90059,OW0004452,"BERI VENTURES, LLC",RESTAURANT (0-30) SEATS MODERATE RISK,1631,SUBWAY SANDWICHES,ACTIVE,PR0002505,"['Sandwiches', 'Fast Food']",False,33.9314,-118.26468,$,2.5,5,3Y_FZG6GyAgvMcykWZEiVA
74,DAN8ZCKX0,12/01/2016 12:00:00 AM,STREET CHURROS,91,A,1,ROUTINE INSPECTION,EE0000835,6801 HOLLYWOOD BLVD # 253,LOS ANGELES,FA0224109,CA,90028,OW0228670,"STREETCHURROS, INC",RESTAURANT (0-30) SEATS LOW RISK,1630,STREET CHURROS,ACTIVE,PR0179282,"['Desserts', 'Coffee & Tea']",False,34.1025903,-118.3400444,$,4.0,206,JDXgGhatX1xgSTjpqP1kXg
75,DALZAH6KJ,12/01/2016 12:00:00 AM,NAGILA MEAT PL,91,A,1,ROUTINE INSPECTION,EE0000375,9407 W PICO BLVD,LOS ANGELES,FA0041131,CA,90035,OW0030003,"REUVEN, NITKA",RESTAURANT (0-30) SEATS HIGH RISK,1632,NAGILA MEAT PL,ACTIVE,PR0031185,"['Middle Eastern', 'Kosher']",False,34.0554049,-118.394114,$$,3.5,85,ZN_vA4eyc-C11GtJZ5fUWg
76,DAWZG8CY8,12/01/2016 12:00:00 AM,LA POBLANITA,90,A,1,ROUTINE INSPECTION,EE0000946,3051 W 7TH ST,LOS ANGELES,FA0021042,CA,90005,OW0013591,"GOMEZ, JERONIMO",RESTAURANT (0-30) SEATS HIGH RISK,1632,LA POBLANITA,ACTIVE,PR0041540,['Mexican'],False,34.06003,-118.2905,$,3.5,27,HOo6f28YBZStn0F9V4mOFA
77,DAGHCZ19L,12/01/2016 12:00:00 AM,GAME SPORTS BAR AND GRILL,93,A,1,ROUTINE INSPECTION,EE0000955,5630 W MANCHESTER AVE,LOS ANGELES,FA0024378,CA,90045,OW0012683,GAME SPORTS BAR AND GRILL LL,RESTAURANT (151 + ) SEATS HIGH RISK,1641,GAME SPORTS BAR AND GRILL,ACTIVE,PR0024796,"['Sports Bars', 'American (New)']",False,33.95944,-118.37957,$$,3.5,307,vqXfFRSvAGdsJ4lHPndpYA
78,DAYKQMDXH,12/01/2016 12:00:00 AM,JANGGUN BBQ,92,A,1,ROUTINE INSPECTION,EE0000946,698 S VERMONT AVE STE 111,LOS ANGELES,FA0223040,CA,90005,OW0227791,SSS LEE INC,RESTAURANT (31-60) SEATS HIGH RISK,1635,JANGGUN BBQ,INACTIVE,PR0178082,"['Barbeque', 'Asian Fusion', 'Korean']",True,34.06012,-118.29128,$$,5.0,20,LUHJSR2LccJP_mMdqX6jUQ
79,DAFKCJ14X,12/01/2016 12:00:00 AM,RALPHS MARKET #39,99,A,1,ROUTINE INSPECTION,EE0000828,260 S LA BREA AVE,LOS ANGELES,FA0069205,CA,90036,OW0029458,RALPHS GROCERY COMPANY,RESTAURANT (0-30) SEATS MODERATE RISK,1631,RALPHS MARKET #39 - STARBUCKS,ACTIVE,PR0179967,['Grocery'],False,34.06972,-118.34344,$$,3.0,159,SNu6_THPLdt8VoWpM1WBTQ
80,DADXR8U8D,12/01/2016 12:00:00 AM,RALPHS MARKET #39,98,A,1,ROUTINE INSPECTION,EE0000828,260 S LA BREA AVE,LOS ANGELES,FA0069205,CA,90036,OW0029458,RALPHS GROCERY COMPANY,RESTAURANT (0-30) SEATS MODERATE RISK,1631,RALPHS MARKET #39 - BAKERY,ACTIVE,PR0033802,['Grocery'],False,34.06972,-118.34344,$$,3.0,159,SNu6_THPLdt8VoWpM1WBTQ
81,DA1AHA6ER,12/01/2016 12:00:00 AM,RALPHS MARKET #39,100,A,1,ROUTINE INSPECTION,EE0000828,260 S LA BREA AVE,LOS ANGELES,FA0069205,CA,90036,OW0029458,RALPHS GROCERY COMPANY,RESTAURANT (0-30) SEATS MODERATE RISK,1631,RALPHS MARKET #39 -  KOSHER BAKERY,ACTIVE,PR0029110,['Grocery'],False,34.06972,-118.34344,$$,3.0,159,SNu6_THPLdt8VoWpM1WBTQ
82,DAR0S8MXD,12/01/2016 12:00:00 AM,RALPHS MARKET #39,97,A,1,ROUTINE INSPECTION,EE0000828,260 S LA BREA AVE,LOS ANGELES,FA0069205,CA,90036,OW0029458,RALPHS GROCERY COMPANY,RESTAURANT (0-30) SEATS HIGH RISK,1632,RALPHS MARKET #39 -  KITCHEN 2ND FL,ACTIVE,PR0022612,['Grocery'],False,34.06972,-118.34344,$$,3.0,159,SNu6_THPLdt8VoWpM1WBTQ
83,DATPM90ZP,12/01/2016 12:00:00 AM,RALPHS MARKET #39,100,A,1,ROUTINE INSPECTION,EE0000828,260 S LA BREA AVE,LOS ANGELES,FA0069205,CA,90036,OW0029458,RALPHS GROCERY COMPANY,RESTAURANT (0-30) SEATS HIGH RISK,1632,RALPHS MARKET #39 -  KOSHER DELI,ACTIVE,PR0009044,['Grocery'],False,34.06972,-118.34344,$$,3.0,159,SNu6_THPLdt8VoWpM1WBTQ
84,DAHQW2FCE,12/01/2016 12:00:00 AM,RALPHS MARKET #39,98,A,1,ROUTINE INSPECTION,EE0000828,260 S LA BREA AVE,LOS ANGELES,FA0069205,CA,90036,OW0029458,RALPHS GROCERY COMPANY,RESTAURANT (0-30) SEATS HIGH RISK,1632,RALPHS MARKET #39 -  DELI,ACTIVE,PR0004189,['Grocery'],False,34.06972,-118.34344,$$,3.0,159,SNu6_THPLdt8VoWpM1WBTQ
85,DA5NNVNHU,12/01/2016 12:00:00 AM,AFC SUSHI @ RALPH'S #39,98,A,1,ROUTINE INSPECTION,EE0000828,260 S LA BREA AVE,LOS ANGELES,FA0167767,CA,90036,OW0001761,ADVANCED FRESH CONCEPTS FRANCHISE CORP,RESTAURANT (0-30) SEATS HIGH RISK,1632,AFC SUSHI @ RALPH'S #39,ACTIVE,PR0158155,['Grocery'],False,34.06972,-118.34344,$$,3.0,159,SNu6_THPLdt8VoWpM1WBTQ
86,DA2PAKQ61,12/01/2016 12:00:00 AM,CHARLES DREW UNIVERSITY,99,A,1,ROUTINE INSPECTION,EE0000725,1731 E 120TH ST,LOS ANGELES,FA0159601,CA,90059,OW0124610,SOCEXO AMERICA LLC,RESTAURANT (0-30) SEATS MODERATE RISK,1631,CHARLES DREW UNIVERSITY,ACTIVE,PR0147662,['Colleges & Universities'],False,33.9255435055265,-118.242644703981,blank,3.0,9,1pYgriuJKeX6F53Ko84ABg
87,DALK7UJWS,12/01/2016 12:00:00 AM,LA CHINA POBLANA,94,A,1,ROUTINE INSPECTION,EE0000997,3568 WHITTIER BLVD,LOS ANGELES,FA0065077,CA,90023,OW0007553,"CHILACA QUITL, MARIA LUCIA",RESTAURANT (31-60) SEATS HIGH RISK,1635,LA CHINA POBLANA,ACTIVE,PR0040804,['Mexican'],False,34.0254872668937,-118.196503417203,$,3.5,165,lleW6GpfElpW6OrftSkzJQ
88,DA4HE0XJH,12/01/2016 12:00:00 AM,CHANDARA RESTAURANT,97,A,1,ROUTINE INSPECTION,EE0000629,11940 W PICO BLVD,LOS ANGELES,FA0059475,CA,90064,OW0006919,CHAN DARA INC,RESTAURANT (61-150) SEATS HIGH RISK,1638,CHAN DARA,INACTIVE,PR0023656,['Thai'],True,34.0299531,-118.4487223,$$,3.5,316,OHsE4LG0CsDVXtSxFhTEgw
89,DASK8HS0C,12/01/2016 12:00:00 AM,NAGILA PIZZA,91,A,1,ROUTINE INSPECTION,EE0000375,9411 W PICO BLVD,LOS ANGELES,FA0067390,CA,90035,OW0025519,NAGILA PIZZA INC,RESTAURANT (61-150) SEATS HIGH RISK,1638,NAGILA PIZZA,ACTIVE,PR0005180,"['Pizza', 'Kosher']",False,34.0554049,-118.3941299,$$,3.5,174,v4cvdltMrY54ffuR43jxhQ
90,DA7YCY8EV,12/01/2016 12:00:00 AM,BIG SAVER FOODS,91,A,401,OWNER INITIATED ROUTINE INSPECT.,EE0000420,5168 S HUNTINGTON DR,LOS ANGELES,FA0171998,CA,90032,OW0036820,UKA'S BIG SAVER FOODS INC,RESTAURANT (0-30) SEATS MODERATE RISK,1631,BIG SAVER FOODS BAKERY,ACTIVE,PR0164492,"['Grocery', 'Bakeries', 'Meat Shops']",False,34.0890155564021,-118.169860801761,$,3.0,24,BhQxsFS68JmFvX3yXCluow
91,DA7YCY8EV,12/01/2016 12:00:00 AM,BIG SAVER FOODS,91,A,401,OWNER INITIATED ROUTINE INSPECT.,EE0000420,5168 S HUNTINGTON DR,LOS ANGELES,FA0171998,CA,90032,OW0036820,UKA'S BIG SAVER FOODS INC,RESTAURANT (0-30) SEATS MODERATE RISK,1631,BIG SAVER FOODS BAKERY,ACTIVE,PR0164492,"['Grocery', 'Bakeries', 'Meat Shops']",False,34.0890155564021,-118.169860801761,$,3.0,24,BhQxsFS68JmFvX3yXCluow
92,DAYLK8JRH,11/21/2016 12:00:00 AM,BIG SAVER FOODS,83,B,1,ROUTINE INSPECTION,EE0000420,5168 S HUNTINGTON DR,LOS ANGELES,FA0171998,CA,90032,OW0036820,UKA'S BIG SAVER FOODS INC,RESTAURANT (0-30) SEATS MODERATE RISK,1631,BIG SAVER FOODS BAKERY,ACTIVE,PR0164492,"['Grocery', 'Bakeries', 'Meat Shops']",False,34.0890155564021,-118.169860801761,$,3.0,24,BhQxsFS68JmFvX3yXCluow
93,DAYLK8JRH,11/21/2016 12:00:00 AM,BIG SAVER FOODS,83,B,1,ROUTINE INSPECTION,EE0000420,5168 S HUNTINGTON DR,LOS ANGELES,FA0171998,CA,90032,OW0036820,UKA'S BIG SAVER FOODS INC,RESTAURANT (0-30) SEATS MODERATE RISK,1631,BIG SAVER FOODS BAKERY,ACTIVE,PR0164492,"['Grocery', 'Bakeries', 'Meat Shops']",False,34.0890155564021,-118.169860801761,$,3.0,24,BhQxsFS68JmFvX3yXCluow
94,DAQ4CLWOV,12/01/2016 12:00:00 AM,BERNARDS AVALON GRILL,92,A,1,ROUTINE INSPECTION,EE0000725,11913 S AVALON BLVD,LOS ANGELES,FA0008921,CA,90061,OW0025378,"MURRAY, NATHAN",RESTAURANT (0-30) SEATS MODERATE RISK,1631,BERNARDS AVALON GRILL,ACTIVE,PR0038980,['Burgers'],False,33.924702,-118.265355,$,4.5,29,tcLPjEHuKPBSLiCwDQZXPg
95,DAAAZVYML,12/01/2016 12:00:00 AM,EL POLLO TAQUERO,90,A,1,ROUTINE INSPECTION,EE0000904,4481 SANTA MONICA BLVD,LOS ANGELES,FA0021115,CA,90029,OW0015370,"HERNANDEZ, MARTHA PATRICIA",RESTAURANT (0-30) SEATS HIGH RISK,1632,EL POLLO TAQUERO,ACTIVE,PR0011584,['Mexican'],False,34.0909148007631,-118.28631542623,$,4.0,92,XWfORlNX1pPfXDHaQRp1Mw
96,DAWT10EBI,12/01/2016 12:00:00 AM,BAOHAUS,94,A,1,ROUTINE INSPECTION,EE0000360,727 N BROADWAY STE 130,LOS ANGELES,FA0241455,CA,90012,OW0237349,BAOHAUS FAR EAST PLAZA LLC,RESTAURANT (0-30) SEATS HIGH RISK,1632,BAOHAUS,ACTIVE,PR0189568,"['Taiwanese', 'Chinese']",False,34.0615394967125,-118.239711444674,$$,4.0,421,E-NAwWgfnEWd-wr9rst06Q
97,DAW4XKVT0,12/01/2016 12:00:00 AM,TACO PETE #3,98,A,1,ROUTINE INSPECTION,EE0000725,12007 S CENTRAL AVE,LOS ANGELES,FA0050838,CA,90059,OW0017892,"JONES, MACK C",RESTAURANT (0-30) SEATS MODERATE RISK,1631,TACO PETE #3,ACTIVE,PR0023294,['Mexican'],False,33.9235,-118.25466,$,3.5,97,y-PYylz4ZcPkg8ej1h_Yvw
98,DAZWPUNOX,12/01/2016 12:00:00 AM,QDOBA MEXICAN GRILL,97,A,1,ROUTINE INSPECTION,EE0000721,655 S HOPE ST,LOS ANGELES,FA0045375,CA,90017,OW0040328,"ZRC OPERATIONS COMPANY, LLC",RESTAURANT (61-150) SEATS HIGH RISK,1638,QDOBA MEXICAN GRILL,ACTIVE,PR0036718,"['Mexican', 'Fast Food']",False,34.0483085444162,-118.257754594088,$,3.5,178,3O7YbvVTw_pYPIu4rwr4vQ
99,DA9VOGID4,12/01/2016 12:00:00 AM,STUDIO CAFE RALEIGH STUDIOS,92,A,1,ROUTINE INSPECTION,EE0000117,650 N BRONSON AVE,LOS ANGELES,FA0141187,CA,90004-1404,OW0104307,COLOR CORRECTIONS,RESTAURANT (61-150) SEATS HIGH RISK,1638,STUDIO CAFE RALEIGH STUDIOS,ACTIVE,PR0128410,"['Italian', 'Seafood', 'Mexican']",False,34.0824164877827,-118.31746399259,$$,4.0,11,hf9Cql8AqCB6dV8a8uTyJA
100,DAJPBFG00,12/01/2016 12:00:00 AM,"GREENVIEW THAI , RESTAURANT",95,A,1,ROUTINE INSPECTION,EE0000629,11870 SANTA MONICA BLVD # 107,LOS ANGELES,FA0240699,CA,90025,OW0236750,"GREENVIEW THAI , LLC",RESTAURANT (31-60) SEATS HIGH RISK,1635,"GREENVIEW THAI , RESTAURANT",ACTIVE,PR0188746,"['Thai', 'Chinese', 'Vietnamese']",False,34.041756,-118.459547,$$,3.0,321,jh_6XdcCqW5-eMyblXRDXA
101,DABTW0HLM,12/01/2016 12:00:00 AM,SAITO'S SUSHI,90,A,1,ROUTINE INSPECTION,EE0000904,4339 W SUNSET BLVD,LOS ANGELES,FA0046691,CA,90029,OW0031247,SAITO YUTAKA,RESTAURANT (0-30) SEATS HIGH RISK,1632,SAITO'S SUSHI,INACTIVE,PR0028899,['Sushi Bars'],True,34.0953115282147,-118.283456283677,$$$,3.5,140,rAW28ZLHpre3B5MM92r0fA
102,DAE1PZXIU,12/01/2016 12:00:00 AM,HOTEL ANGELENO CAFE,92,A,1,ROUTINE INSPECTION,EE0000684,170 N CHURCH LN,LOS ANGELES,FA0029460,CA,90049,OW0003187,"ASCOT HOTEL, LP",RESTAURANT (151 + ) SEATS HIGH RISK,1641,HOTEL ANGELENO-WEST,ACTIVE,PR0027442,['Hotels'],False,34.073875,-118.4682422,$$,3.5,427,9eeTLLA3vUWTxa3UbJnCUg
103,DAE1PZXIU,12/01/2016 12:00:00 AM,HOTEL ANGELENO CAFE,92,A,1,ROUTINE INSPECTION,EE0000684,170 N CHURCH LN,LOS ANGELES,FA0029460,CA,90049,OW0003187,"ASCOT HOTEL, LP",RESTAURANT (151 + ) SEATS HIGH RISK,1641,HOTEL ANGELENO-WEST,ACTIVE,PR0027442,['Hotels'],False,34.073875,-118.4682422,$$,3.5,427,9eeTLLA3vUWTxa3UbJnCUg
104,DAVKX17XV,12/01/2016 12:00:00 AM,HOTEL ANGELENO CAFE,98,A,1,ROUTINE INSPECTION,EE0000684,170 N CHURCH LN,LOS ANGELES,FA0029460,CA,90049,OW0003187,"ASCOT HOTEL, LP",RESTAURANT (0-30) SEATS LOW RISK,1630,HOTEL ANGELENO CAFE,ACTIVE,PR0033908,['Hotels'],False,34.073875,-118.4682422,$$,3.5,427,9eeTLLA3vUWTxa3UbJnCUg
105,DAVKX17XV,12/01/2016 12:00:00 AM,HOTEL ANGELENO CAFE,98,A,1,ROUTINE INSPECTION,EE0000684,170 N CHURCH LN,LOS ANGELES,FA0029460,CA,90049,OW0003187,"ASCOT HOTEL, LP",RESTAURANT (0-30) SEATS LOW RISK,1630,HOTEL ANGELENO CAFE,ACTIVE,PR0033908,['Hotels'],False,34.073875,-118.4682422,$$,3.5,427,9eeTLLA3vUWTxa3UbJnCUg
106,DA8KTKZNR,12/09/2015 12:00:00 AM,OKI DOG 3,91,A,1,ROUTINE INSPECTION,EE0000951,860 N FAIRFAX AVE,LOS ANGELES,FA0026987,CA,90046,OW0026660,OKI DOG LLC,RESTAURANT (0-30) SEATS HIGH RISK,1632,OKI DOG 3,ACTIVE,PR0000412,"['Hot Dogs', 'Fast Food']",False,34.08706,-118.36121,$,3.0,229,pmJWaHSBQIUypQYAHx8p0A
107,DABBNRVHR,12/01/2016 12:00:00 AM,SAKURA HOUSE,88,B,1,ROUTINE INSPECTION,EE0000953,13362 W WASHINGTON BLVD,LOS ANGELES,FA0046697,CA,90066,OW0036658,TSUTSUMI OF AMERICA INC,RESTAURANT (31-60) SEATS HIGH RISK,1635,SAKURA HOUSE,ACTIVE,PR0003918,"['Barbeque', 'Japanese']",False,33.9920616473549,-118.443912494661,$$,4.0,291,vjVX79fzmd8cwaPFxHqlYA
108,DABYRZOB4,12/01/2016 12:00:00 AM,VONS MARKET #3263,100,A,1,ROUTINE INSPECTION,EE0000923,1342 N ALVARADO ST,LOS ANGELES,FA0053932,CA,90026,OW0038181,THE VONS COMPANIES INC.,RESTAURANT (0-30) SEATS HIGH RISK,1632,VONS-DELI,ACTIVE,PR0020329,['Grocery'],False,34.07971,-118.26134,$$,2.5,112,_l7QbQG0Garql40JBzU--Q
109,DAPF1RVDT,12/01/2016 12:00:00 AM,PIARA PIZZA,94,A,1,ROUTINE INSPECTION,EE0000725,11151 AVALON BLVD STE 102,LOS ANGELES,FA0203757,CA,90061,OW0208889,"AVALON TAKEOUT GROUP INC,",RESTAURANT (0-30) SEATS MODERATE RISK,1631,PIARA PIZZA,ACTIVE,PR0176161,"['Chicken Wings', 'Pizza']",False,33.9334526062012,-118.265510559082,$,3.5,5,qKC84EP5FoPEtExZHwd_wA
110,DA5V50BKA,12/01/2016 12:00:00 AM,PLANK 47 PIZZA,92,A,1,ROUTINE INSPECTION,EE0000953,4551 CENTINELA AVE,LOS ANGELES,FA0175350,CA,90066,OW0181913,"PLANK 47 PIZZA, LLC",RESTAURANT (0-30) SEATS MODERATE RISK,1631,PLANK 47 PIZZA,ACTIVE,PR0168488,['Pizza'],False,33.9918849278619,-118.4222561831,$$,4.0,121,ECb14VQ_c1m7QQZwa1a4aw
111,DAKP8AHQ7,12/01/2016 12:00:00 AM,EL CONDOR,93,A,1,ROUTINE INSPECTION,EE0000904,3701 W SUNSET BLVD,LOS ANGELES,FA0158349,CA,90026,OW0123419,LA CONQ LLC,RESTAURANT (61-150) SEATS HIGH RISK,1638,EL CONDOR,ACTIVE,PR0146435,['Mexican'],False,34.0906362156233,-118.27773001045,$$,3.5,274,fl6RC6MMp-b4QZoGuAzdhA
112,DAXNPPJKJ,12/01/2016 12:00:00 AM,THE CORK AT LA TIJERA,88,B,1,ROUTINE INSPECTION,EE0000955,6835 LA TIJERA BLVD,LOS ANGELES,FA0051781,CA,90045,OW0036350,TRACE CO LLC.,RESTAURANT (61-150) SEATS HIGH RISK,1638,THE CORK AT LA TIJERA,ACTIVE,PR0014278,"['Bars', 'American (Traditional)', 'Music Venues']",True,33.976515,-118.3728223,$$,3.0,81,8ukGK0tH_eaNIs8ErDbT3A
113,DAABZKKVB,12/01/2016 12:00:00 AM,SAWYER,93,A,1,ROUTINE INSPECTION,EE0000904,3705 SUNSET BLVD,LOS ANGELES,FA0223963,CA,90026,OW0228539,3705 GROUP LLC,RESTAURANT (0-30) SEATS HIGH RISK,1632,SAWYER - KETTLE BLACK,ACTIVE,PR0189321,"['Italian', 'Wine Bars']",False,34.0907745,-118.2779437,$$,3.5,258,mdPdWJvKCpOJhMqrFiQqWw
114,DAABZKKVB,12/01/2016 12:00:00 AM,SAWYER,93,A,1,ROUTINE INSPECTION,EE0000904,3705 SUNSET BLVD,LOS ANGELES,FA0223963,CA,90026,OW0228539,3705 GROUP LLC,RESTAURANT (0-30) SEATS HIGH RISK,1632,SAWYER - KETTLE BLACK,ACTIVE,PR0189321,"['American (New)', 'Seafood', 'Salad']",False,34.0905727,-118.2778757,$$,4.0,512,Bjkw0oRy1STaCJmv5EZ0Mw
115,DAABZKKVB,12/01/2016 12:00:00 AM,SAWYER,93,A,1,ROUTINE INSPECTION,EE0000904,3705 SUNSET BLVD,LOS ANGELES,FA0223963,CA,90026,OW0228539,3705 GROUP LLC,RESTAURANT (0-30) SEATS HIGH RISK,1632,SAWYER - KETTLE BLACK,ACTIVE,PR0189321,"['American (New)', 'Seafood', 'Salad']",False,34.0905727,-118.2778757,$$,4.0,512,Bjkw0oRy1STaCJmv5EZ0Mw
116,DAIHJ1TOI,11/02/2016 12:00:00 AM,SAWYER,90,A,1,ROUTINE INSPECTION,EE0000904,3705 SUNSET BLVD,LOS ANGELES,FA0223963,CA,90026,OW0228539,3705 GROUP LLC,RESTAURANT (61-150) SEATS HIGH RISK,1638,SAWYER,ACTIVE,PR0179123,"['Italian', 'Wine Bars']",False,34.0907745,-118.2779437,$$,3.5,258,mdPdWJvKCpOJhMqrFiQqWw
117,DAIHJ1TOI,11/02/2016 12:00:00 AM,SAWYER,90,A,1,ROUTINE INSPECTION,EE0000904,3705 SUNSET BLVD,LOS ANGELES,FA0223963,CA,90026,OW0228539,3705 GROUP LLC,RESTAURANT (61-150) SEATS HIGH RISK,1638,SAWYER,ACTIVE,PR0179123,"['American (New)', 'Seafood', 'Salad']",False,34.0905727,-118.2778757,$$,4.0,512,Bjkw0oRy1STaCJmv5EZ0Mw
118,DAIHJ1TOI,11/02/2016 12:00:00 AM,SAWYER,90,A,1,ROUTINE INSPECTION,EE0000904,3705 SUNSET BLVD,LOS ANGELES,FA0223963,CA,90026,OW0228539,3705 GROUP LLC,RESTAURANT (61-150) SEATS HIGH RISK,1638,SAWYER,ACTIVE,PR0179123,"['American (New)', 'Seafood', 'Salad']",False,34.0905727,-118.2778757,$$,4.0,512,Bjkw0oRy1STaCJmv5EZ0Mw
119,DAZCC5WDI,11/02/2016 12:00:00 AM,SAWYER,95,A,1,ROUTINE INSPECTION,EE0000904,3705 SUNSET BLVD,LOS ANGELES,FA0223963,CA,90026,OW0228539,3705 GROUP LLC,RESTAURANT (0-30) SEATS MODERATE RISK,1631,SAWYER - CLOVER,ACTIVE,PR0189320,"['Italian', 'Wine Bars']",False,34.0907745,-118.2779437,$$,3.5,258,mdPdWJvKCpOJhMqrFiQqWw
120,DAZCC5WDI,11/02/2016 12:00:00 AM,SAWYER,95,A,1,ROUTINE INSPECTION,EE0000904,3705 SUNSET BLVD,LOS ANGELES,FA0223963,CA,90026,OW0228539,3705 GROUP LLC,RESTAURANT (0-30) SEATS MODERATE RISK,1631,SAWYER - CLOVER,ACTIVE,PR0189320,"['American (New)', 'Seafood', 'Salad']",False,34.0905727,-118.2778757,$$,4.0,512,Bjkw0oRy1STaCJmv5EZ0Mw
121,DAZCC5WDI,11/02/2016 12:00:00 AM,SAWYER,95,A,1,ROUTINE INSPECTION,EE0000904,3705 SUNSET BLVD,LOS ANGELES,FA0223963,CA,90026,OW0228539,3705 GROUP LLC,RESTAURANT (0-30) SEATS MODERATE RISK,1631,SAWYER - CLOVER,ACTIVE,PR0189320,"['American (New)', 'Seafood', 'Salad']",False,34.0905727,-118.2778757,$$,4.0,512,Bjkw0oRy1STaCJmv5EZ0Mw
122,DA6CGF9IH,12/01/2016 12:00:00 AM,KOBAWOO HOUSE,90,A,1,ROUTINE INSPECTION,EE0000946,698 S VERMONT AVE STE 109,LOS ANGELES,FA0032544,CA,90005,OW0003737,"BAIK, KEUM R",RESTAURANT (31-60) SEATS HIGH RISK,1635,KOBAWOO HOUSE,ACTIVE,PR0028392,['Korean'],False,34.06012,-118.29128,$$,4.5,1037,TWHGJkTAbF22hvXeReQp9w
123,DAE15AW9S,12/01/2016 12:00:00 AM,WAI POKE,90,A,1,ROUTINE INSPECTION,EE0000699,3450 W 6TH ST # 107,LOS ANGELES,FA0241243,CA,90010,OW0237198,WAI POKE INC,RESTAURANT (0-30) SEATS HIGH RISK,1632,WAI POKE,INACTIVE,PR0189347,"['Poke', 'Hawaiian', 'Ramen']",True,34.06323,-118.29702,$,4.5,52,nlC01Kqk6p6ULdTTOow2nA
124,DALKNG53U,12/01/2016 12:00:00 AM,SHANGHAI DIAMOND GARDEN,90,A,1,ROUTINE INSPECTION,EE0000375,9401 W PICO BLVD,LOS ANGELES,FA0032662,CA,90035,OW0028074,PC CALIFORNIA GRILL INC,RESTAURANT (61-150) SEATS HIGH RISK,1638,SHANGHAI DIAMOND GARDEN,ACTIVE,PR0024180,['Chinese'],False,34.0555496,-118.394043,$$,4.0,33,InN6t0XhZmogx1aXx7bE4A
125,DAS5ERJDR,12/01/2016 12:00:00 AM,DYLAN'S CANDY BAR,92,A,1,ROUTINE INSPECTION,EE0000468,6333 W 3RD ST #10,LOS ANGELES,FA0071599,CA,90048,OW0010567,"DYLAN'S CANDY BAR, LLC",RESTAURANT (0-30) SEATS LOW RISK,1630,DYLAN'S CANDY BAR,ACTIVE,PR0039551,"['Candy Stores', 'Ice Cream & Frozen Yogurt', 'Venues & Event Spaces']",False,34.0721879176086,-118.359472979623,$$,3.5,219,JwACDeVwNgiOtIJ4Q5b5ew
126,DAOH0GMUS,12/01/2016 12:00:00 AM,IL PICCOLO VERDE,92,A,1,ROUTINE INSPECTION,EE0000684,140 S BARRINGTON PL,LOS ANGELES,FA0138895,CA,90049,OW0102182,CASIANO LANCASTER INVESTMENTS LLC,RESTAURANT (61-150) SEATS HIGH RISK,1638,IL PICCOLO VERDE,ACTIVE,PR0123268,"['Italian', 'Pizza', 'Gluten-Free']",False,34.0662677,-118.4688297,$$,4.0,195,E-CpxE_sbtfJNtZM_aUE7g
127,DA0727769,12/01/2016 12:00:00 AM,EXPRESS BURGER,90,A,1,ROUTINE INSPECTION,EE0001073,10727 S CENTRAL AVE,LOS ANGELES,FA0224903,CA,90059,OW0229380,EXPRESS BURGER,RESTAURANT (31-60) SEATS HIGH RISK,1635,EXPRESS BURGER,ACTIVE,PR0180180,['Burgers'],False,33.9384750817425,-118.254446089268,$,4.0,3,o7__znXHxJdfZ-MlvY7N8g
128,DANXGVAAW,12/01/2016 12:00:00 AM,LOUISANA RED SEAFOOD,91,A,1,ROUTINE INSPECTION,EE0001064,7800 S WESTERN AVE,LOS ANGELES,FA0036074,CA,90047,OW0008085,"CHUNG, WAN JIN",RESTAURANT (0-30) SEATS HIGH RISK,1632,LOUISANA RED SEAFOOD,ACTIVE,PR0006789,['Seafood'],False,33.968914,-118.308647,$,5.0,4,llpFr0Rl2eR_byC5nAHVcw
129,DAAJEXNEO,12/01/2016 12:00:00 AM,HAPPY FISH MARKET,94,A,1,ROUTINE INSPECTION,EE0001064,1658 W MANCHESTER AVE,LOS ANGELES,FA0063230,CA,90047,OW0020162,"KWON, K WON",RESTAURANT (0-30) SEATS HIGH RISK,1632,HAPPY FISH MARKET,INACTIVE,PR0048329,['Fish & Chips'],False,33.9596557617188,-118.306640625,$,4.5,18,lr_C5FIOZV5fzxH58uNcJQ
130,DAVYBX76H,12/01/2016 12:00:00 AM,WOODY'S BAR-B-QUE,93,A,1,ROUTINE INSPECTION,EE0001064,1958 W FLORENCE AVE,LOS ANGELES,FA0074175,CA,90047,OW0028141,PEIGNE FOODS 11,RESTAURANT (0-30) SEATS HIGH RISK,1632,WOODY'S BAR-B-QUE,ACTIVE,PR0006424,['Barbeque'],False,33.97429,-118.31316,$$,3.0,86,VbKt7P2cbJcSFn_3rhVRpg
131,DAWPOZJR2,12/01/2016 12:00:00 AM,EL GUANAQUITO,90,A,1,ROUTINE INSPECTION,EE0001064,7231 S WESTERN AVE,LOS ANGELES,FA0061432,CA,90047,OW0024102,"MEJIA, MARIA INES",RESTAURANT (0-30) SEATS HIGH RISK,1632,EL GUANAQUITO,ACTIVE,PR0009417,['Salvadoran'],False,33.973889,-118.309436,$,3.5,10,rZWVH6UBFu9I91qcQ_gksA
132,DA6NEGV5H,12/01/2016 12:00:00 AM,CRUZER PIZZA & PASTA,97,A,1,ROUTINE INSPECTION,EE0000846,4449 PROSPECT AVE,LOS ANGELES,FA0017267,CA,90027,OW0009214,CURZER PIZZA,RESTAURANT (0-30) SEATS MODERATE RISK,1631,CRUZER PIZZA & PASTA,ACTIVE,PR0024411,"['Pizza', 'Vegan']",False,34.101988487468,-118.286900938097,$$,4.5,678,b4Oq0ESx-a_w1qJ-snDWvw
133,DA06QFU9Y,12/01/2016 12:00:00 AM,WORLD SEAFOOD,95,A,1,ROUTINE INSPECTION,EE0001064,1554 W FLORENCE AVE,LOS ANGELES,FA0041472,CA,90047,OW0033516,SONG JUNG JA,RESTAURANT (0-30) SEATS HIGH RISK,1632,WORLD SEAFOOD,ACTIVE,PR0031752,['Seafood Markets'],False,33.9743395304136,-118.304474120535,$$,4.0,43,KVa2WGKMt7Bi9XYXnIvImg
134,DAAFLC0FH,12/01/2016 12:00:00 AM,TOM'S JR. EXPRESS,92,A,1,ROUTINE INSPECTION,EE0001064,722 W FLORENCE AVE,LOS ANGELES,FA0222981,CA,90044,OW0227745,"K.P.  FLAWLESS, INC.",RESTAURANT (0-30) SEATS HIGH RISK,1632,TOM'S JR.  EXPRESS,ACTIVE,PR0178016,['Burgers'],False,33.9745450426858,-118.286742903292,$,3.5,16,963Bn7LrUlIbQPalq3fyNA
135,DAXG3B0EX,12/01/2016 12:00:00 AM,DESERT ROSE,97,A,1,ROUTINE INSPECTION,EE0000846,1700 HILLHURST AVE,LOS ANGELES,FA0060816,CA,90027,OW0009808,"DESERT ROSE BAR & LOUNGE, IN",RESTAURANT (61-150) SEATS HIGH RISK,1638,DESERT ROSE,ACTIVE,PR0007416,"['Mediterranean', 'American (New)', 'Bars']",False,34.1019355434511,-118.287244335044,$$,3.5,790,_LJ2Ub-G-UBQI9pHQvE-bA
136,DARJKSHLE,12/01/2016 12:00:00 AM,RALPHS MARKET #274,97,A,1,ROUTINE INSPECTION,EE0001064,1730 W MANCHESTER AVE,LOS ANGELES,FA0029791,CA,90047,OW0029458,RALPHS GROCERY COMPANY,RESTAURANT (0-30) SEATS HIGH RISK,1632,RALPHS MARKET #274,ACTIVE,PR0010951,['Grocery'],False,33.95947265625,-118.307929992676,$$,2.0,31,eyXU5L7PnQ6y5wTfUVSDdg
137,DAYX0K9NN,12/01/2016 12:00:00 AM,POPEYES CHICKEN,91,A,1,ROUTINE INSPECTION,EE0001064,8530 S FIGUEROA ST,LOS ANGELES,FA0044981,CA,90003,OW0023153,MANGEN ENTERPRISES,RESTAURANT (31-60) SEATS HIGH RISK,1635,POPEYES CHICKEN,ACTIVE,PR0039705,"['Fast Food', 'Chicken Wings']",False,33.9603937818148,-118.282398301964,$,2.0,43,wH7TpBMnglkunbWrGr512g
138,DASUWVRWD,12/01/2016 12:00:00 AM,LOUISIANA FRIED CHICKEN,90,A,1,ROUTINE INSPECTION,EE0001064,1401 W MANCHESTER AVE,LOS ANGELES,FA0223639,CA,90047,OW0228254,DDA LOUISIANA FRIED CHICKEN,RESTAURANT (0-30) SEATS HIGH RISK,1632,LOUISIANA FRIED CHICKEN,ACTIVE,PR0178773,"['Cajun/Creole', 'Fast Food']",False,33.9603118896484,-118.300643920898,$,4.0,81,GPoXEOaMuAXODSzLrr3sBA
139,DA4CNYJOI,12/01/2016 12:00:00 AM,ARASHI SUSHI,91,A,1,ROUTINE INSPECTION,EE0000721,1111 S HOPE ST # #100,LOS ANGELES,FA0007136,CA,90015,OW0002919,ARASHI SUSHI INC.,RESTAURANT (31-60) SEATS HIGH RISK,1635,ARASHI SUSHI,ACTIVE,PR0009661,"['Sushi Bars', 'Japanese']",False,34.0421028137207,-118.263687133789,$$,4.0,654,3DGoEPRKF9d3MnpybEcH6Q
140,DASWRTYDC,12/01/2016 12:00:00 AM,JIM DANDY FRIED CHICKEN LLC,91,A,1,ROUTINE INSPECTION,EE0001064,1824 W MANCHESTER AVE,LOS ANGELES,FA0175521,CA,90047,OW0182071,"TALIFER ENTERPRISES, LLC",RESTAURANT (0-30) SEATS HIGH RISK,1632,JIM DANDY FRIED CHICKEN LLC,ACTIVE,PR0168677,['Fast Food'],False,33.95967,-118.30991,$,3.5,39,4KOPo7f3Qkjbxr52bWbEag
141,DAW9GYBME,11/30/2016 12:00:00 AM,ORSA-WINSTON,94,A,1,ROUTINE INSPECTION,EE0000721,112 W 4TH ST,LOS ANGELES,FA0139090,CA,90013,OW0102349,ORSA-WINSTON 168 PARTNER LP,RESTAURANT (31-60) SEATS HIGH RISK,1635,ORSA-WINSTON,ACTIVE,PR0123470,"['Italian', 'Japanese']",False,34.0484549,-118.2479646,$$$$,4.0,372,ZIsekcDGiAjF7yruJZSOrQ
142,DAP7WWQLE,11/30/2016 12:00:00 AM,BUILT BURGER,90,A,1,ROUTINE INSPECTION,EE0000633,200 WORLD WAY STE T234,LOS ANGELES,FA0172190,CA,90045,OW0179230,CREWS LAX2 LLC,RESTAURANT (31-60) SEATS HIGH RISK,1635,BUILT BURGER,ACTIVE,PR0164712,['Burgers'],False,33.9461917976613,-118.404103517999,$$,2.5,146,mI9KS_7Jq8O4B6zS6TaFmA
143,DALTHRDQ9,11/30/2016 12:00:00 AM,THE DARKROOM KITCHEN,94,A,1,ROUTINE INSPECTION,EE0000951,7302 MELROSE AVE,LOS ANGELES,FA0072217,CA,90046,OW0032301,SEVEN MELROSE LLC,RESTAURANT (31-60) SEATS HIGH RISK,1635,THE DARKROOM KITCHEN,ACTIVE,PR0031171,"['American (New)', 'Comfort Food', 'Lounges']",False,34.08327,-118.34886,$$,3.5,287,7ydQ514GwDhbaFetIMQ7wA
144,DALTHRDQ9,11/30/2016 12:00:00 AM,THE DARKROOM KITCHEN,94,A,1,ROUTINE INSPECTION,EE0000951,7302 MELROSE AVE,LOS ANGELES,FA0072217,CA,90046,OW0032301,SEVEN MELROSE LLC,RESTAURANT (31-60) SEATS HIGH RISK,1635,THE DARKROOM KITCHEN,ACTIVE,PR0031171,"['American (New)', 'Comfort Food', 'Lounges']",False,34.08327,-118.34886,$$,3.5,287,7ydQ514GwDhbaFetIMQ7wA
145,DABLXAZ9Z,11/30/2016 12:00:00 AM,THE DARKROOM KITCHEN,97,A,1,ROUTINE INSPECTION,EE0000951,7302 MELROSE AVE,LOS ANGELES,FA0072217,CA,90046,OW0032301,SEVEN MELROSE LLC,RESTAURANT (31-60) SEATS LOW RISK,1633,THE DARKROOM,ACTIVE,PR0009402,"['American (New)', 'Comfort Food', 'Lounges']",False,34.08327,-118.34886,$$,3.5,287,7ydQ514GwDhbaFetIMQ7wA
146,DABLXAZ9Z,11/30/2016 12:00:00 AM,THE DARKROOM KITCHEN,97,A,1,ROUTINE INSPECTION,EE0000951,7302 MELROSE AVE,LOS ANGELES,FA0072217,CA,90046,OW0032301,SEVEN MELROSE LLC,RESTAURANT (31-60) SEATS LOW RISK,1633,THE DARKROOM,ACTIVE,PR0009402,"['American (New)', 'Comfort Food', 'Lounges']",False,34.08327,-118.34886,$$,3.5,287,7ydQ514GwDhbaFetIMQ7wA
147,DAJUSTK03,11/30/2016 12:00:00 AM,CHRISTY'S DONUT,96,A,1,ROUTINE INSPECTION,EE0000746,5546 YORK BLVD,LOS ANGELES,FA0059789,CA,90042,OW0022593,LY MIENG,RESTAURANT (0-30) SEATS MODERATE RISK,1631,CHRISTY'S DONUT,ACTIVE,PR0015205,['Donuts'],False,34.1192347617658,-118.196931481361,$,4.5,9,PQU0RMyTesJlQvq7Cd6w3Q
148,DAKBTZK2F,11/30/2016 12:00:00 AM,MOOLKO,98,A,1,ROUTINE INSPECTION,EE0000723,2010 W JAMES M. WOOD BLVD,LOS ANGELES,FA0223830,CA,90006,OW0228420,INTERNATIONAL FRANCHISE GROUP,RESTAURANT (61-150) SEATS HIGH RISK,1638,MOOLKO,INACTIVE,PR0178987,"['Korean', 'Seafood', 'Soup']",True,34.05279,-118.27807,$$,4.5,48,M_iPE7YA5faTEV7GHbfgfw
149,DAUEUU0QI,11/30/2016 12:00:00 AM,CABANAS RESTAURANTE,90,A,1,ROUTINE INSPECTION,EE0000721,1003 S HILL ST,LOS ANGELES,FA0006801,CA,90015,OW0024780,"MOLINA,HILDA D",RESTAURANT (31-60) SEATS HIGH RISK,1635,CABANAS RESTAURANTE,ACTIVE,PR0037902,"['Tapas/Small Plates', 'Imported Food']",False,34.0415402,-118.2587322,$,4.0,22,Si0Lyewd1nkUBhLTpRbhgw
150,DAG0NJMLY,11/30/2016 12:00:00 AM,JIN JU GOM TANG,95,A,1,ROUTINE INSPECTION,EE0000722,4451 BEVERLY BLVD,LOS ANGELES,FA0225517,CA,90004,OW0229773,TPIM INC,RESTAURANT (31-60) SEATS HIGH RISK,1635,JIN JU GOM TANG,ACTIVE,PR0180848,"['Korean', 'Comfort Food', 'Soup']",False,34.07642,-118.30557,$$,5.0,131,LtQu-lT9Hpm_n_5LcXsdYA
151,DAW0R7UN2,11/30/2016 12:00:00 AM,SCOOPS ON YORK,99,A,1,ROUTINE INSPECTION,EE0000746,5105 E YORK BLVD,LOS ANGELES,FA0047956,CA,90042,OW0019497,"KIM, TAI W",RESTAURANT (0-30) SEATS MODERATE RISK,1631,SCOOPS ON YORK,ACTIVE,PR0028877,['Ice Cream & Frozen Yogurt'],False,34.1213,-118.20446,$,4.5,354,zHcnwNPVfrb4O1rNyo80iQ
152,DAAE60XWT,11/30/2016 12:00:00 AM,MARIE CALLENDER'S RESTAURANT,96,A,1,ROUTINE INSPECTION,EE0000144,11324 NATIONAL BLVD,LOS ANGELES,FA0066403,CA,90064,OW0008964,COX-KALMBACH ENTERPRISES INC,RESTAURANT (61-150) SEATS HIGH RISK,1638,MARIE CALLENDER RESTAURANT,ACTIVE,PR0004524,"['Bakeries', 'American (Traditional)', 'Venues & Event Spaces']",False,34.02553,-118.43219,$$,3.5,193,ddQ-nWc2NRdqGO-1qEOHug
153,DAK0YLCTQ,11/30/2016 12:00:00 AM,THE PONTE,95,A,1,ROUTINE INSPECTION,EE0000726,8265 BEVERLY BLVD,LOS ANGELES,FA0163228,CA,90045,OW0126893,TERRINE LLC,RESTAURANT (61-150) SEATS HIGH RISK,1638,THE PONTE,ACTIVE,PR0151416,"['Italian', 'Wine Bars', 'Breakfast & Brunch']",False,34.0762049,-118.36968,$$$,4.0,241,y0xy_TqE6Yvx2TYb_V4_-w
154,DAORMQ5F7,11/30/2016 12:00:00 AM,PICK-UP STIX,81,B,1,ROUTINE INSPECTION,EE0000633,200 WORLD WAY T236,LOS ANGELES,FA0174394,CA,90045,OW0009036,"CREWS OF CALIFORNIA, INC",RESTAURANT (31-60) SEATS HIGH RISK,1635,PICK-UP STIX,ACTIVE,PR0167293,['Asian Fusion'],False,33.9462932343978,-118.404006561377,$$,2.0,59,PJmKbe16KiX8WgxJ8C7-8w
155,DAJOMNJ0E,11/30/2016 12:00:00 AM,PUPUSERIA EL SAVOY,86,B,1,ROUTINE INSPECTION,EE0000723,2439 W JAMES M WOOD BLVD,LOS ANGELES,FA0029211,CA,90006,OW0002440,"AMAYA, RENE ARISTIDES",RESTAURANT (0-30) SEATS HIGH RISK,1632,PUPUSERIA EL SAVOY,ACTIVE,PR0000642,"['Mexican', 'Salvadoran', 'Burgers']",False,34.0553183,-118.2827283,$,4.5,12,XWChlhVPLnfspXKUE4IiMg
156,DA1RWNE8Y,11/30/2016 12:00:00 AM,THE HEIGHTS DELI AND BOTTLE SHOP,93,A,1,ROUTINE INSPECTION,EE0000740,2927 N BROADWAY,LOS ANGELES,FA0172393,CA,90031,OW0179426,THE HEIGHTS DELI INC,RESTAURANT (0-30) SEATS MODERATE RISK,1631,THE HEIGHTS DELI AND BOTTLE SHOP,ACTIVE,PR0164946,"['Pizza', 'Delis', 'Beer, Wine & Spirits']",False,34.07405,-118.21074,$$,4.5,354,TfOSFot95apd12VspcmW7A
157,DAYT7TJRA,11/30/2016 12:00:00 AM,OMNI HOTEL GRAND CAFE,97,A,1,ROUTINE INSPECTION,EE0000721,251 S OLIVE ST,LOS ANGELES,FA0027045,CA,90012,OW0026775,OMNI HOTEL MANAGEMENT CORP,RESTAURANT (0-30) SEATS MODERATE RISK,1631,OMNI HOTEL-PASTRY KITCHEN,ACTIVE,PR0042885,"['Day Spas', 'Massage', 'Skin Care']",False,34.0526390075684,-118.250381469727,$$,4.5,50,pOSliH1G9hVoJzrg37vodg
158,DAYT7TJRA,11/30/2016 12:00:00 AM,OMNI HOTEL GRAND CAFE,97,A,1,ROUTINE INSPECTION,EE0000721,251 S OLIVE ST,LOS ANGELES,FA0027045,CA,90012,OW0026775,OMNI HOTEL MANAGEMENT CORP,RESTAURANT (0-30) SEATS MODERATE RISK,1631,OMNI HOTEL-PASTRY KITCHEN,ACTIVE,PR0042885,['Hotels'],False,34.052563,-118.25056,$$$,4.0,594,u6wFTRE9RUY_LGNnIDbrzQ
159,DAYT7TJRA,11/30/2016 12:00:00 AM,OMNI HOTEL GRAND CAFE,97,A,1,ROUTINE INSPECTION,EE0000721,251 S OLIVE ST,LOS ANGELES,FA0027045,CA,90012,OW0026775,OMNI HOTEL MANAGEMENT CORP,RESTAURANT (0-30) SEATS MODERATE RISK,1631,OMNI HOTEL-PASTRY KITCHEN,ACTIVE,PR0042885,"['Bars', 'French', 'Music Venues']",False,34.05256144001,-118.250604543655,$$$,4.0,410,vsVGA4-vCEHCBi6RUK_WFA
160,DAXUFLKVU,11/30/2016 12:00:00 AM,OMNI HOTEL GRAND CAFE,96,A,1,ROUTINE INSPECTION,EE0000721,251 S OLIVE ST,LOS ANGELES,FA0027045,CA,90012,OW0026775,OMNI HOTEL MANAGEMENT CORP,RESTAURANT (151 + ) SEATS HIGH RISK,1641,OMNI HOTEL GRAND CAFE,ACTIVE,PR0024233,"['Day Spas', 'Massage', 'Skin Care']",False,34.0526390075684,-118.250381469727,$$,4.5,50,pOSliH1G9hVoJzrg37vodg
161,DAXUFLKVU,11/30/2016 12:00:00 AM,OMNI HOTEL GRAND CAFE,96,A,1,ROUTINE INSPECTION,EE0000721,251 S OLIVE ST,LOS ANGELES,FA0027045,CA,90012,OW0026775,OMNI HOTEL MANAGEMENT CORP,RESTAURANT (151 + ) SEATS HIGH RISK,1641,OMNI HOTEL GRAND CAFE,ACTIVE,PR0024233,['Hotels'],False,34.052563,-118.25056,$$$,4.0,594,u6wFTRE9RUY_LGNnIDbrzQ
162,DAXUFLKVU,11/30/2016 12:00:00 AM,OMNI HOTEL GRAND CAFE,96,A,1,ROUTINE INSPECTION,EE0000721,251 S OLIVE ST,LOS ANGELES,FA0027045,CA,90012,OW0026775,OMNI HOTEL MANAGEMENT CORP,RESTAURANT (151 + ) SEATS HIGH RISK,1641,OMNI HOTEL GRAND CAFE,ACTIVE,PR0024233,"['Bars', 'French', 'Music Venues']",False,34.05256144001,-118.250604543655,$$$,4.0,410,vsVGA4-vCEHCBi6RUK_WFA
163,DASRJPQI3,11/30/2016 12:00:00 AM,OMNI HOTEL GRAND CAFE,99,A,1,ROUTINE INSPECTION,EE0000721,251 S OLIVE ST,LOS ANGELES,FA0027045,CA,90012,OW0026775,OMNI HOTEL MANAGEMENT CORP,RESTAURANT (151 + ) SEATS LOW RISK,1639,OMNI HOTEL NOE BAR,ACTIVE,PR0035547,"['Day Spas', 'Massage', 'Skin Care']",False,34.0526390075684,-118.250381469727,$$,4.5,50,pOSliH1G9hVoJzrg37vodg
164,DASRJPQI3,11/30/2016 12:00:00 AM,OMNI HOTEL GRAND CAFE,99,A,1,ROUTINE INSPECTION,EE0000721,251 S OLIVE ST,LOS ANGELES,FA0027045,CA,90012,OW0026775,OMNI HOTEL MANAGEMENT CORP,RESTAURANT (151 + ) SEATS LOW RISK,1639,OMNI HOTEL NOE BAR,ACTIVE,PR0035547,['Hotels'],False,34.052563,-118.25056,$$$,4.0,594,u6wFTRE9RUY_LGNnIDbrzQ
165,DASRJPQI3,11/30/2016 12:00:00 AM,OMNI HOTEL GRAND CAFE,99,A,1,ROUTINE INSPECTION,EE0000721,251 S OLIVE ST,LOS ANGELES,FA0027045,CA,90012,OW0026775,OMNI HOTEL MANAGEMENT CORP,RESTAURANT (151 + ) SEATS LOW RISK,1639,OMNI HOTEL NOE BAR,ACTIVE,PR0035547,"['Bars', 'French', 'Music Venues']",False,34.05256144001,-118.250604543655,$$$,4.0,410,vsVGA4-vCEHCBi6RUK_WFA
166,DAIQZSZ9B,11/30/2016 12:00:00 AM,VEGAN GLORY LLC,97,A,1,ROUTINE INSPECTION,EE0000726,8393 BEVERLY BLVD,LOS ANGELES,FA0073317,CA,90048,OW0037446,VEGAN GLORY LLC,RESTAURANT (31-60) SEATS HIGH RISK,1635,VEGAN GLORY LLC,ACTIVE,PR0009405,"['Thai', 'Vegan']",False,34.0761749,-118.372852,$$,4.0,782,vWycXIVP5CYns2tJvKQDsg
167,DACNUPXNB,11/30/2016 12:00:00 AM,PEKING KITCHEN,94,A,1,ROUTINE INSPECTION,EE0000468,6333 W 3RD ST STE 508,LOS ANGELES,FA0043646,CA,90036,OW0040324,"ZOU, QI",RESTAURANT (0-30) SEATS HIGH RISK,1632,PEKING KITCHEN,ACTIVE,PR0008450,['Chinese'],False,34.072277,-118.360925,$,2.0,20,g-UPzNm1-jEhq_up6YYOJg
168,DAKNFC6GJ,11/30/2016 12:00:00 AM,CLASSIC BAKERY,95,A,1,ROUTINE INSPECTION,EE0001048,8670 W PICO BLVD,LOS ANGELES,FA0009322,CA,90035,OW0026875,OREL PASTRY INC,RESTAURANT (0-30) SEATS MODERATE RISK,1631,CLASSIC BAKERY,ACTIVE,PR0040025,"['Desserts', 'Bakeries']",False,34.0539588928223,-118.381034851074,$$,4.5,62,Aka9nE5Crir6hQNZ62i-gw
169,DAQBLYWRY,11/30/2016 12:00:00 AM,KINDLE'S DONUTS,92,A,1,ROUTINE INSPECTION,EE0000729,10003 S NORMANDIE AVE,LOS ANGELES,FA0064819,CA,90044,OW0007492,"CHHUOR, KEAR",RESTAURANT (0-30) SEATS MODERATE RISK,1631,KINDLE'S DONUTS,ACTIVE,PR0048336,['Donuts'],False,33.94521,-118.30049,$,4.5,29,xdbA2ETjPBUkfXT-71tqJQ
170,DAB5GREPR,11/30/2016 12:00:00 AM,CHINA EXPRESS,92,A,1,ROUTINE INSPECTION,EE0001026,5440 S CENTRAL AVE,LOS ANGELES,FA0059686,CA,90011,OW0036856,"UN, SREILEAKHENA",RESTAURANT (0-30) SEATS HIGH RISK,1632,CHINA EXPRESS,ACTIVE,PR0014231,['Chinese'],False,33.993324637413,-118.256405442953,blank,4.0,6,D9tQXXkZZL40aMSUlj_qQg
171,DAL0E0ONB,11/30/2016 12:00:00 AM,MORNING NIGHTS,80,B,1,ROUTINE INSPECTION,EE0000904,1523 GRIFFITH PARK BLVD,LOS ANGELES,FA0067202,CA,90026,OW0007706,"CHOE, BRANDON",RESTAURANT (0-30) SEATS MODERATE RISK,1631,MORNING NIGHTS,INACTIVE,PR0046462,"['Coffee & Tea', 'Bagels']",True,34.090598,-118.277399,$,4.0,297,n7e_afAHhZQp6sqS5MGxtA
172,DAFTPWZKJ,11/30/2016 12:00:00 AM,BAJA BUDS,94,A,1,ROUTINE INSPECTION,EE0000144,11205 NATIONAL BLVD,LOS ANGELES,FA0007973,CA,90064,OW0024319,MEXICAN VENTURES INC,RESTAURANT (31-60) SEATS HIGH RISK,1635,BAJA BUDS,ACTIVE,PR0019423,"['Mexican', 'Desserts', 'Salad']",False,34.02743,-118.42929,$,4.0,247,7XGC9lQ1-9T4QOe6DX6xZg
173,DAPRZVEZL,11/30/2016 12:00:00 AM,CHIPOTLE MEXICAN GRILL #04-1500,100,A,1,ROUTINE INSPECTION,EE0000721,601 W 7TH ST,LOS ANGELES,FA0056181,CA,90017,OW0007608,"CHIPOTLE MEXICAN GRILL, INC.",RESTAURANT (61-150) SEATS HIGH RISK,1638,CHIPOTLE MEXICAN GRILL,ACTIVE,PR0025679,"['Mexican', 'Fast Food']",False,34.047538949743,-118.25663395742,$,3.0,275,HPdHlt__xeJzcYwBEuoWag
174,DAFVLBVO3,11/30/2016 12:00:00 AM,INDIA SWEET HOUSE,91,A,1,ROUTINE INSPECTION,EE0001048,5992 W PICO BLVD,LOS ANGELES,FA0018003,CA,90035,OW0007561,"CHILLAR, JAGDISH SINGH",RESTAURANT (0-30) SEATS MODERATE RISK,1631,INDIA SWEET HOUSE,ACTIVE,PR0029792,"['Indian', 'Vegetarian']",False,34.0522087,-118.3710975,$,4.0,181,EMEXhuFSQAgEEg6yN0XOsw
175,DAPJPQPTD,11/30/2016 12:00:00 AM,CIABATTA BAR,97,A,1,ROUTINE INSPECTION,EE0000633,200 WORLD WAY # 233,LOS ANGELES,FA0175813,CA,90045,OW0009036,"CREWS OF CALIFORNIA, INC",RESTAURANT (31-60) SEATS HIGH RISK,1635,CIABATTA BAR,ACTIVE,PR0169024,"['Italian', 'Salad', 'Sandwiches']",False,33.9453726,-118.4031099,$$,2.0,37,kre5OPU3MOAZlDJMPZmgsw
176,DAKJNVXDY,11/30/2016 12:00:00 AM,PICO KOSHER DELI TAKE-OUT,92,A,1,ROUTINE INSPECTION,EE0000727,8820 W PICO BLVD,LOS ANGELES,FA0068659,CA,90035,OW0028518,"PICO KOSHER DELI, INC.",RESTAURANT (0-30) SEATS HIGH RISK,1632,PICO KOSHER DELI TAKE-OUT,ACTIVE,PR0041696,"['Delis', 'Kosher', 'Sandwiches']",False,34.0546035766602,-118.384475708008,$$,3.5,188,2s6EiQINEg27DfG70UCIFg
177,DA0A9URMI,11/30/2016 12:00:00 AM,MEXI KOSHER,96,A,1,ROUTINE INSPECTION,EE0000727,8832 W PICO BLVD,LOS ANGELES,FA0040267,CA,90035,OW0024317,MEXI KOSHER LLC,RESTAURANT (31-60) SEATS HIGH RISK,1635,MEXI KOSHER,ACTIVE,PR0001956,"['Kosher', 'Mexican']",True,34.05462,-118.3846,$$,4.0,311,W97BWBr0Rv4Ir_k1AJjGhw
178,DAAJX5CRU,11/30/2016 12:00:00 AM,EL POLLO LOCO,92,A,1,ROUTINE INSPECTION,EE0000958,1360 W IMPERIAL HWY,LOS ANGELES,FA0021132,CA,90044,OW0038257,W K S RESTAURANT CORP,RESTAURANT (31-60) SEATS HIGH RISK,1635,EL POLLO LOCO,ACTIVE,PR0037839,"['Fast Food', 'Mexican']",False,33.9306432019151,-118.300039363615,$,2.5,26,TcZI3mazARIJLxdYMB8_Cg
179,DANQJ5NLI,11/30/2016 12:00:00 AM,SABOR COLOMBIANO RESTAURANT,90,A,1,ROUTINE INSPECTION,EE0000884,847 S UNION AVE,LOS ANGELES,FA0241476,CA,90017,OW0237362,SABOR COLOMBIANO INC.,RESTAURANT (31-60) SEATS HIGH RISK,1635,SABOR COLOMBIANO RESTAURANT,ACTIVE,PR0189591,['Colombian'],False,34.05124,-118.27332,$$,3.5,279,Wvb0SWivIviHeo860qwUFg
180,DAYIOKUDU,11/30/2016 12:00:00 AM,SUBWAY #47000,100,A,1,ROUTINE INSPECTION,EE0000746,5526 E YORK BLVD,LOS ANGELES,FA0034890,CA,90042,OW0035352,TGB INVESTMENTS INC,RESTAURANT (0-30) SEATS MODERATE RISK,1631,SUBWAY #47000,ACTIVE,PR0000863,"['Sandwiches', 'Fast Food']",False,34.1193261,-118.1970733,$,2.5,17,GeiCys8De7nOPoifwH4Z_w
181,DAGQOHZVG,11/30/2016 12:00:00 AM,TERRONI,95,A,1,ROUTINE INSPECTION,EE0000726,7605 BEVERLY BLVD,LOS ANGELES,FA0036747,CA,90036,OW0005596,"C S MAX HOLDINGS, INC",RESTAURANT (61-150) SEATS HIGH RISK,1638,TERRONI,INACTIVE,PR0006147,"['Italian', 'Pizza']",False,34.0762749,-118.3555375,$$,3.5,1036,_99S24U4pTduqpiJOEMD8w
182,DAHDHZTC9,11/30/2016 12:00:00 AM,YOGURTLAND WESTCHESTER,99,A,1,ROUTINE INSPECTION,EE0000733,8752 S SEPULVEDA BLVD,LOS ANGELES,FA0162764,CA,90045,OW0126469,BLOOM 1201 INC.,RESTAURANT (0-30) SEATS MODERATE RISK,1631,YOGURTLAND WESTCHESTER,INACTIVE,PR0150907,['Ice Cream & Frozen Yogurt'],False,33.9574192542568,-118.395997282762,$,4.0,63,2U5Qi59WuiO6ZNQuNkdxZA
183,DA1GJIRFB,11/30/2016 12:00:00 AM,MOM'S BBQ,99,A,1,ROUTINE INSPECTION,EE0000958,1050 W IMPERIAL HWY,LOS ANGELES,FA0025469,CA,90044,OW0029487,RAMIREZ RIGOBERTO,RESTAURANT (0-30) SEATS HIGH RISK,1632,MOM'S BBQ,ACTIVE,PR0013116,['Barbeque'],False,33.9308351,-118.2937549,$$,3.5,124,GA4wY7ec1Qt_1VtJo-bcbQ
184,DAE2ZQAQ3,11/30/2016 12:00:00 AM,DURANGO RESTAURANT,85,B,1,ROUTINE INSPECTION,EE0000958,11227 S FIGUEROA ST,LOS ANGELES,FA0061187,CA,90061,OW0022845,"MAGDALENO, RAFAEL",RESTAURANT (0-30) SEATS HIGH RISK,1632,DURANGO RESTAURANT,ACTIVE,PR0008919,"['Mexican', 'Grocery']",False,33.9312030033869,-118.282912150221,$,5.0,5,ZlcSMZPIX6N3nyS5uhaSFQ
185,DAYCZQJEZ,11/30/2016 12:00:00 AM,TACOS CHAPALITA,93,A,1,ROUTINE INSPECTION,EE0000740,2929 1/2 N BROADWAY,LOS ANGELES,FA0164826,CA,90031,OW0128137,FRANCISCO JAVIER ESTRADA,RESTAURANT (0-30) SEATS MODERATE RISK,1631,TACOS CHAPALITA,INACTIVE,PR0153112,['Mexican'],False,34.07405,-118.21056,$,4.0,96,N-J0ITVOsYmpvExjiRnaFA
186,DA0T1GUZN,11/30/2016 12:00:00 AM,LA BREA BAGEL,91,A,1,ROUTINE INSPECTION,EE0000468,7308 BEVERLY BLVD,LOS ANGELES,FA0065049,CA,90036,OW0020299,LA BREA BAGEL LLC,RESTAURANT (31-60) SEATS MODERATE RISK,1634,LA BREA BAGEL,ACTIVE,PR0045669,"['Bagels', 'Kosher', 'Breakfast & Brunch']",False,34.0760251,-118.3489442,$,2.5,93,fD1yMdkObUMjN5w7VSvxlg
187,DAPBCAQ7A,11/30/2016 12:00:00 AM,RED MANGO YOGURT & SMOOTHIES,97,A,1,ROUTINE INSPECTION,EE0000122,1011 S FIGUEROA ST #B 120,LOS ANGELES,FA0172042,CA,90015,OW0179094,HAMILL ENTERPRISES,RESTAURANT (0-30) SEATS MODERATE RISK,1631,RED MANGO YOGURT & SMOOTHIES,ACTIVE,PR0164546,"['Ice Cream & Frozen Yogurt', 'Juice Bars & Smoothies', 'Acai Bowls']",False,34.0440954892715,-118.265098320367,$,3.5,106,IP9xsjUj21uxpLlVvaXe8A
188,DA0ONU0C1,11/30/2016 12:00:00 AM,HAPPY TACO,98,A,1,ROUTINE INSPECTION,EE0000723,1309 S HOOVER ST,LOS ANGELES,FA0223769,CA,90006,OW0228370,MARIA DALIA MEZA,RESTAURANT (0-30) SEATS HIGH RISK,1632,HAPPY TACO,ACTIVE,PR0178919,"['Mexican', 'American (Traditional)']",False,34.0469713238291,-118.284385576844,$,4.0,297,Ij1S9QX1QWDVwJLBcWiejQ
189,DA8VJ9URZ,11/30/2016 12:00:00 AM,TIERRA MIA COFFEE COMPANY,98,A,1,ROUTINE INSPECTION,EE0000721,653 S SPRING ST,LOS ANGELES,FA0052508,CA,90014,OW0035927,TIERRA MIA COFFEE COMPANY,RESTAURANT (0-30) SEATS LOW RISK,1630,TIERRA MIA COFFEE COMPANY,ACTIVE,PR0032807,"['Coffee & Tea', 'Bakeries', 'Cupcakes']",False,34.045240804553,-118.251737728715,$,4.5,376,YxXdWO8uE84evYVbp-5Gqw
190,DAFSTOAKP,11/30/2016 12:00:00 AM,HAMBURGER HABIT #2 WLA,98,A,1,ROUTINE INSPECTION,EE0000144,11223 NATIONAL BLVD,LOS ANGELES,FA0063162,CA,90025,OW0028383,"PEZESHKI,FARHAD",RESTAURANT (31-60) SEATS HIGH RISK,1635,HAMBURGER HABIT #2 WLA,ACTIVE,PR0022938,['Burgers'],False,34.0273034315832,-118.429574530444,$,3.0,451,Ocdamt8Rj1OwLz0jUXrvTw
191,DAUA0WNBP,11/30/2016 12:00:00 AM,BLUE BOTTLE COFFEE,97,A,1,ROUTINE INSPECTION,EE0000140,582 MATEO ST,LOS ANGELES,FA0225197,CA,90013,OW0127193,"BLUE BOTTLE COFFEE, INC.",RESTAURANT (0-30) SEATS LOW RISK,1630,BLUE BOTTLE COFFEE,ACTIVE,PR0180525,['Coffee & Tea'],False,34.0390900328542,-118.232654359424,$$,4.0,522,0fydYOMuaOOjlWizHjbuIA
192,DADE9XSH0,11/30/2016 12:00:00 AM,NORTHGATE MARKET,97,A,1,ROUTINE INSPECTION,EE0000884,2323 W OLYMPIC BLVD,LOS ANGELES,FA0026579,CA,90006,OW0026268,NORTHGATE GONZALEZ LLC,RESTAURANT (0-30) SEATS MODERATE RISK,1631,NORTHGATE MARKET,ACTIVE,PR0025606,"['Grocery', 'Bakeries', 'Mexican']",False,34.0525196,-118.2826615,$$,3.5,55,5UpYCyRGhBkXhP2UhnK8tw
193,DADE9XSH0,11/30/2016 12:00:00 AM,NORTHGATE MARKET,97,A,1,ROUTINE INSPECTION,EE0000884,2323 W OLYMPIC BLVD,LOS ANGELES,FA0026579,CA,90006,OW0026268,NORTHGATE GONZALEZ LLC,RESTAURANT (0-30) SEATS MODERATE RISK,1631,NORTHGATE MARKET,ACTIVE,PR0025606,"['Grocery', 'Bakeries', 'Mexican']",False,34.0525196,-118.2826615,$$,3.5,55,5UpYCyRGhBkXhP2UhnK8tw
194,DADE9XSH0,11/30/2016 12:00:00 AM,NORTHGATE MARKET,97,A,1,ROUTINE INSPECTION,EE0000884,2323 W OLYMPIC BLVD,LOS ANGELES,FA0026579,CA,90006,OW0026268,NORTHGATE GONZALEZ LLC,RESTAURANT (0-30) SEATS MODERATE RISK,1631,NORTHGATE MARKET,ACTIVE,PR0025606,"['Grocery', 'Bakeries', 'Mexican']",False,34.0525196,-118.2826615,$$,3.5,55,5UpYCyRGhBkXhP2UhnK8tw
195,DAYY0IBQG,11/29/2016 12:00:00 AM,NORTHGATE MARKET,97,A,1,ROUTINE INSPECTION,EE0000884,2323 W OLYMPIC BLVD,LOS ANGELES,FA0026579,CA,90006,OW0026268,NORTHGATE GONZALEZ LLC,RESTAURANT (0-30) SEATS MODERATE RISK,1631,NORTHGATE TORTILLERIA,ACTIVE,PR0005611,"['Grocery', 'Bakeries', 'Mexican']",False,34.0525196,-118.2826615,$$,3.5,55,5UpYCyRGhBkXhP2UhnK8tw
196,DAYY0IBQG,11/29/2016 12:00:00 AM,NORTHGATE MARKET,97,A,1,ROUTINE INSPECTION,EE0000884,2323 W OLYMPIC BLVD,LOS ANGELES,FA0026579,CA,90006,OW0026268,NORTHGATE GONZALEZ LLC,RESTAURANT (0-30) SEATS MODERATE RISK,1631,NORTHGATE TORTILLERIA,ACTIVE,PR0005611,"['Grocery', 'Bakeries', 'Mexican']",False,34.0525196,-118.2826615,$$,3.5,55,5UpYCyRGhBkXhP2UhnK8tw
197,DAYY0IBQG,11/29/2016 12:00:00 AM,NORTHGATE MARKET,97,A,1,ROUTINE INSPECTION,EE0000884,2323 W OLYMPIC BLVD,LOS ANGELES,FA0026579,CA,90006,OW0026268,NORTHGATE GONZALEZ LLC,RESTAURANT (0-30) SEATS MODERATE RISK,1631,NORTHGATE TORTILLERIA,ACTIVE,PR0005611,"['Grocery', 'Bakeries', 'Mexican']",False,34.0525196,-118.2826615,$$,3.5,55,5UpYCyRGhBkXhP2UhnK8tw
198,DAS09DEZB,10/26/2016 12:00:00 AM,NORTHGATE MARKET,96,A,1,ROUTINE INSPECTION,EE0000884,2323 W OLYMPIC BLVD,LOS ANGELES,FA0026579,CA,90006,OW0026268,NORTHGATE GONZALEZ LLC,RESTAURANT (0-30) SEATS HIGH RISK,1632,NORTHGATE RESTAURANT,ACTIVE,PR0029474,"['Grocery', 'Bakeries', 'Mexican']",False,34.0525196,-118.2826615,$$,3.5,55,5UpYCyRGhBkXhP2UhnK8tw
199,DAS09DEZB,10/26/2016 12:00:00 AM,NORTHGATE MARKET,96,A,1,ROUTINE INSPECTION,EE0000884,2323 W OLYMPIC BLVD,LOS ANGELES,FA0026579,CA,90006,OW0026268,NORTHGATE GONZALEZ LLC,RESTAURANT (0-30) SEATS HIGH RISK,1632,NORTHGATE RESTAURANT,ACTIVE,PR0029474,"['Grocery', 'Bakeries', 'Mexican']",False,34.0525196,-118.2826615,$$,3.5,55,5UpYCyRGhBkXhP2UhnK8tw
200,DAS09DEZB,10/26/2016 12:00:00 AM,NORTHGATE MARKET,96,A,1,ROUTINE INSPECTION,EE0000884,2323 W OLYMPIC BLVD,LOS ANGELES,FA0026579,CA,90006,OW0026268,NORTHGATE GONZALEZ LLC,RESTAURANT (0-30) SEATS HIGH RISK,1632,NORTHGATE RESTAURANT,ACTIVE,PR0029474,"['Grocery', 'Bakeries', 'Mexican']",False,34.0525196,-118.2826615,$$,3.5,55,5UpYCyRGhBkXhP2UhnK8tw
201,DAV4H4UYK,11/30/2016 12:00:00 AM,HONG KONG EXPRESS,91,A,1,ROUTINE INSPECTION,EE0000839,3330 W FLORENCE AVE # B,LOS ANGELES,FA0028580,CA,90043,OW0016431,"HOUT, TEANG",RESTAURANT (0-30) SEATS HIGH RISK,1632,HONG KONG EXPRESS,ACTIVE,PR0017350,['Chinese'],False,33.974182382359,-118.330426846627,$,3.0,42,rLCCRYMvrgwbAQ04kwOMuw
202,DABWMMT47,11/30/2016 12:00:00 AM,JUANITA'S RESTAURANT,90,A,1,ROUTINE INSPECTION,EE0000723,755 S UNION AVE,LOS ANGELES,FA0158728,CA,90017,OW0123776,VELEZ JUANA,RESTAURANT (0-30) SEATS HIGH RISK,1632,JUANITA'S RESTAURANT,ACTIVE,PR0146813,['Mexican'],False,34.0527568740033,-118.272432563691,$,3.5,6,jgbQ94c4sEOts8ZqT2LvSw
203,DARZUBUBZ,11/30/2016 12:00:00 AM,GESSO FAIRFAX,92,A,1,ROUTINE INSPECTION,EE0000951,801 N FAIRFAX AVE STE #101,LOS ANGELES,FA0044666,CA,90046,OW0028644,PITFIRE FAIRFAX LLC,RESTAURANT (61-150) SEATS HIGH RISK,1638,GESSO FAIRFAX,ACTIVE,PR0021890,"['Pizza', 'Cocktail Bars', 'Breakfast & Brunch']",False,34.0856592344468,-118.361674393388,$$,4.0,139,UQMGi8HE4utMMu5Q0wsB6g
204,DATCQDH6R,11/30/2016 12:00:00 AM,ANTEQUERA,96,A,1,ROUTINE INSPECTION,EE0000722,5200 MELROSE AVE,LOS ANGELES,FA0165114,CA,90038,OW0128397,CLAUDIA PACHECO,RESTAURANT (0-30) SEATS HIGH RISK,1632,ANTEQUERA,ACTIVE,PR0153424,['Mexican'],False,34.083399,-118.313686,$,4.0,169,UWCm-SypBInYPnu06M6bbQ
205,DAAQE0TPH,11/30/2016 12:00:00 AM,GLADY'S DONUTS,98,A,1,ROUTINE INSPECTION,EE0000366,830 E WASHINGTON BLVD #6,LOS ANGELES,FA0025452,CA,90022,OW0022626,"LY, YIV",RESTAURANT (0-30) SEATS MODERATE RISK,1631,GLADY'S DONUTS,ACTIVE,PR0009003,['Donuts'],False,34.025779,-118.254074,$,4.5,4,xwxwweN4XGAAy1LjaBGusQ
206,DAY1GS0EH,11/30/2016 12:00:00 AM,TACOS DELTA,93,A,1,ROUTINE INSPECTION,EE0000904,3806 W SUNSET BLVD,LOS ANGELES,FA0071724,CA,90026,OW0037111,"VALDIVIA, ESTHER & SERGIO",RESTAURANT (0-30) SEATS HIGH RISK,1632,TACOS DELTA,ACTIVE,PR0047430,['Mexican'],False,34.0908699035645,-118.27921295166,$,4.0,509,j63ipopHrhHHnoy9Ac5m0g
207,DAY1CJGFN,11/30/2016 12:00:00 AM,UNITED AIR RED CARPET LOUNGE,97,A,1,ROUTINE INSPECTION,EE0000122,700 WORLD WAY,LOS ANGELES,FA0053417,CA,90045,OW0036898,UNITED AIRLINES,RESTAURANT (151 + ) SEATS MODERATE RISK,1640,UNITED AIR RED CARPET LOUNGE,INACTIVE,PR0025693,['Airlines'],False,33.9430214474461,-118.401361070573,blank,1.5,1213,kTyklCkK37M93K3acpPiIw
208,DAY1CJGFN,11/30/2016 12:00:00 AM,UNITED AIR RED CARPET LOUNGE,97,A,1,ROUTINE INSPECTION,EE0000122,700 WORLD WAY,LOS ANGELES,FA0053417,CA,90045,OW0036898,UNITED AIRLINES,RESTAURANT (151 + ) SEATS MODERATE RISK,1640,UNITED AIR RED CARPET LOUNGE,INACTIVE,PR0025693,"['American (Traditional)', 'Bars']",False,33.941541,-118.399492,$$,2.0,129,18sWqQNqrpgNFwET9m5vXA
209,DAY1CJGFN,11/30/2016 12:00:00 AM,UNITED AIR RED CARPET LOUNGE,97,A,1,ROUTINE INSPECTION,EE0000122,700 WORLD WAY,LOS ANGELES,FA0053417,CA,90045,OW0036898,UNITED AIRLINES,RESTAURANT (151 + ) SEATS MODERATE RISK,1640,UNITED AIR RED CARPET LOUNGE,INACTIVE,PR0025693,['Burgers'],False,33.9413199805381,-118.399504813763,$$,2.5,106,_511GTZrG6CL9AZd23XhvQ
210,DAY1CJGFN,11/30/2016 12:00:00 AM,UNITED AIR RED CARPET LOUNGE,97,A,1,ROUTINE INSPECTION,EE0000122,700 WORLD WAY,LOS ANGELES,FA0053417,CA,90045,OW0036898,UNITED AIRLINES,RESTAURANT (151 + ) SEATS MODERATE RISK,1640,UNITED AIR RED CARPET LOUNGE,INACTIVE,PR0025693,['Mexican'],False,33.9430214,-118.4013612,$$,2.5,59,pzSFQ1ijdAtpsvLWpjUCKw
211,DAX2TKJTU,11/01/2016 12:00:00 AM,ROLLING STONE SPACE 7C,91,A,1,ROUTINE INSPECTION,EE0000122,700 WORLD WAY,LOS ANGELES,FA0241558,CA,90045,OW0016382,HOST INTERNATIONAL INC,RESTAURANT (31-60) SEATS HIGH RISK,1635,ROLLING STONE SPACE 7C,ACTIVE,PR0189681,['Airlines'],False,33.9430214474461,-118.401361070573,blank,1.5,1213,kTyklCkK37M93K3acpPiIw
212,DAX2TKJTU,11/01/2016 12:00:00 AM,ROLLING STONE SPACE 7C,91,A,1,ROUTINE INSPECTION,EE0000122,700 WORLD WAY,LOS ANGELES,FA0241558,CA,90045,OW0016382,HOST INTERNATIONAL INC,RESTAURANT (31-60) SEATS HIGH RISK,1635,ROLLING STONE SPACE 7C,ACTIVE,PR0189681,"['American (Traditional)', 'Bars']",False,33.941541,-118.399492,$$,2.0,129,18sWqQNqrpgNFwET9m5vXA
213,DAX2TKJTU,11/01/2016 12:00:00 AM,ROLLING STONE SPACE 7C,91,A,1,ROUTINE INSPECTION,EE0000122,700 WORLD WAY,LOS ANGELES,FA0241558,CA,90045,OW0016382,HOST INTERNATIONAL INC,RESTAURANT (31-60) SEATS HIGH RISK,1635,ROLLING STONE SPACE 7C,ACTIVE,PR0189681,['Burgers'],False,33.9413199805381,-118.399504813763,$$,2.5,106,_511GTZrG6CL9AZd23XhvQ
214,DAX2TKJTU,11/01/2016 12:00:00 AM,ROLLING STONE SPACE 7C,91,A,1,ROUTINE INSPECTION,EE0000122,700 WORLD WAY,LOS ANGELES,FA0241558,CA,90045,OW0016382,HOST INTERNATIONAL INC,RESTAURANT (31-60) SEATS HIGH RISK,1635,ROLLING STONE SPACE 7C,ACTIVE,PR0189681,['Mexican'],False,33.9430214,-118.4013612,$$,2.5,59,pzSFQ1ijdAtpsvLWpjUCKw
215,DAQBXP3RV,11/01/2016 12:00:00 AM,THE COUNTER SPACE 7C,92,A,1,ROUTINE INSPECTION,EE0000122,700 WORLD WAY,LOS ANGELES,FA0241469,CA,90045,OW0016382,HOST INTERNATIONAL INC,RESTAURANT (0-30) SEATS HIGH RISK,1632,THE COUNTER SPACE 7C,ACTIVE,PR0189582,['Airlines'],False,33.9430214474461,-118.401361070573,blank,1.5,1213,kTyklCkK37M93K3acpPiIw
216,DAQBXP3RV,11/01/2016 12:00:00 AM,THE COUNTER SPACE 7C,92,A,1,ROUTINE INSPECTION,EE0000122,700 WORLD WAY,LOS ANGELES,FA0241469,CA,90045,OW0016382,HOST INTERNATIONAL INC,RESTAURANT (0-30) SEATS HIGH RISK,1632,THE COUNTER SPACE 7C,ACTIVE,PR0189582,"['American (Traditional)', 'Bars']",False,33.941541,-118.399492,$$,2.0,129,18sWqQNqrpgNFwET9m5vXA
217,DAQBXP3RV,11/01/2016 12:00:00 AM,THE COUNTER SPACE 7C,92,A,1,ROUTINE INSPECTION,EE0000122,700 WORLD WAY,LOS ANGELES,FA0241469,CA,90045,OW0016382,HOST INTERNATIONAL INC,RESTAURANT (0-30) SEATS HIGH RISK,1632,THE COUNTER SPACE 7C,ACTIVE,PR0189582,['Burgers'],False,33.9413199805381,-118.399504813763,$$,2.5,106,_511GTZrG6CL9AZd23XhvQ
218,DAQBXP3RV,11/01/2016 12:00:00 AM,THE COUNTER SPACE 7C,92,A,1,ROUTINE INSPECTION,EE0000122,700 WORLD WAY,LOS ANGELES,FA0241469,CA,90045,OW0016382,HOST INTERNATIONAL INC,RESTAURANT (0-30) SEATS HIGH RISK,1632,THE COUNTER SPACE 7C,ACTIVE,PR0189582,['Mexican'],False,33.9430214,-118.4013612,$$,2.5,59,pzSFQ1ijdAtpsvLWpjUCKw
219,DATYA1RBT,11/01/2016 12:00:00 AM,LOTERIA GRILL SPACE 7C,94,A,1,ROUTINE INSPECTION,EE0000122,700 WORLD WAY,LOS ANGELES,FA0241574,CA,90045,OW0016382,HOST INTERNATIONAL INC,RESTAURANT (0-30) SEATS HIGH RISK,1632,LOTERIA GRILL SPACE 7C,ACTIVE,PR0189700,['Airlines'],False,33.9430214474461,-118.401361070573,blank,1.5,1213,kTyklCkK37M93K3acpPiIw
220,DATYA1RBT,11/01/2016 12:00:00 AM,LOTERIA GRILL SPACE 7C,94,A,1,ROUTINE INSPECTION,EE0000122,700 WORLD WAY,LOS ANGELES,FA0241574,CA,90045,OW0016382,HOST INTERNATIONAL INC,RESTAURANT (0-30) SEATS HIGH RISK,1632,LOTERIA GRILL SPACE 7C,ACTIVE,PR0189700,"['American (Traditional)', 'Bars']",False,33.941541,-118.399492,$$,2.0,129,18sWqQNqrpgNFwET9m5vXA
221,DATYA1RBT,11/01/2016 12:00:00 AM,LOTERIA GRILL SPACE 7C,94,A,1,ROUTINE INSPECTION,EE0000122,700 WORLD WAY,LOS ANGELES,FA0241574,CA,90045,OW0016382,HOST INTERNATIONAL INC,RESTAURANT (0-30) SEATS HIGH RISK,1632,LOTERIA GRILL SPACE 7C,ACTIVE,PR0189700,['Burgers'],False,33.9413199805381,-118.399504813763,$$,2.5,106,_511GTZrG6CL9AZd23XhvQ
222,DATYA1RBT,11/01/2016 12:00:00 AM,LOTERIA GRILL SPACE 7C,94,A,1,ROUTINE INSPECTION,EE0000122,700 WORLD WAY,LOS ANGELES,FA0241574,CA,90045,OW0016382,HOST INTERNATIONAL INC,RESTAURANT (0-30) SEATS HIGH RISK,1632,LOTERIA GRILL SPACE 7C,ACTIVE,PR0189700,['Mexican'],False,33.9430214,-118.4013612,$$,2.5,59,pzSFQ1ijdAtpsvLWpjUCKw
223,DAQYGEUMV,11/30/2016 12:00:00 AM,GALLARDO'S TACO,91,A,1,ROUTINE INSPECTION,EE0000691,1501 FIRESTONE BLVD,LOS ANGELES,FA0165160,CA,90001,OW0128442,ALEJANDRO GALLARDO,RESTAURANT (0-30) SEATS HIGH RISK,1632,GALLARDO'S TACO,ACTIVE,PR0153475,['Mexican'],False,33.960342,-118.247238,$,4.5,7,PePFvK88LNo4EE11Xgd0Eg
224,DARKGCYF0,11/30/2016 12:00:00 AM,FRESH BROTHERS PIZZA,91,A,1,ROUTINE INSPECTION,EE0000633,200 WORLD WAY # T235,LOS ANGELES,FA0173625,CA,90045,OW0179230,CREWS LAX2 LLC,RESTAURANT (31-60) SEATS HIGH RISK,1635,FRESH BROTHERS PIZZA,ACTIVE,PR0166398,"['Pizza', 'Salad', 'Chicken Wings']",False,33.9453726,-118.4031099,$$,2.5,30,Rx4FUGr21n61X1A6JdLWbg
225,DADLCIYYZ,11/30/2016 12:00:00 AM,PICO KOSHER DELI,95,A,1,ROUTINE INSPECTION,EE0000727,8826 W PICO BLVD,LOS ANGELES,FA0068660,CA,90035,OW0028518,"PICO KOSHER DELI, INC.",RESTAURANT (31-60) SEATS HIGH RISK,1635,PICO KOSHER DELI,ACTIVE,PR0023025,"['Delis', 'Kosher', 'Sandwiches']",False,34.0546035766602,-118.384475708008,$$,3.5,188,2s6EiQINEg27DfG70UCIFg
226,DAOBVRKST,11/30/2016 12:00:00 AM,DAIKOKUYA,91,A,1,ROUTINE INSPECTION,EE0001058,327 E 1ST ST,LOS ANGELES,FA0010614,CA,90012,OW0019964,KOYAMA TAKAAKI,RESTAURANT (31-60) SEATS HIGH RISK,1635,DAIKOKUYA,ACTIVE,PR0029859,"['Ramen', 'Noodles']",False,34.05008090944,-118.2401804513,$$,4.0,7600,iSZpZgVnASwEmlq0DORY2A
227,DAIOO9QYP,11/30/2016 12:00:00 AM,FORDS FILLING STATION,95,A,1,ROUTINE INSPECTION,EE0000721,900 W OLYMPIC BLVD LBBY LOBBY,LOS ANGELES,FA0020468,CA,90015,OW0026749,"OLYMPIC & GEORGIA PTNRS, LLC",RESTAURANT (151 + ) SEATS HIGH RISK,1641,FORDS FILLING STATION THE GLANCE RESTAURANT,ACTIVE,PR0019849,"['Breakfast & Brunch', 'American (New)']",False,34.044677,-118.266177,$$$,4.5,9,37KbTUgheM4EXb0HVX1AtA
228,DAZ405ITL,11/30/2016 12:00:00 AM,YAI'S ON VERMONT,90,A,1,ROUTINE INSPECTION,EE0000846,1627 N VERMONT AVE,LOS ANGELES,FA0041503,CA,90027,OW0031864,"SATTRAROJNA, CHATIROSE",RESTAURANT (61-150) SEATS HIGH RISK,1638,YAI'S ON VERMONT,ACTIVE,PR0047681,['Thai'],False,34.1008569474244,-118.292515372491,$$,3.5,244,VozmgI0h8R8GUdH8rRWCMA
229,DAZTE3JN0,11/30/2016 12:00:00 AM,KAWABA RICE BALL,99,A,1,ROUTINE INSPECTION,EE0000951,7368 MELROSE AVE,LOS ANGELES,FA0167112,CA,90046,OW0130187,KAWABA RESORT USA INC,RESTAURANT (0-30) SEATS HIGH RISK,1632,KAWABA RICE BALL,INACTIVE,PR0157454,"['Japanese', 'Delis']",True,34.08331,-118.35059,$,4.0,162,Blde7a_s3piK6LDyj3XVTg
230,DALUOM588,11/30/2016 12:00:00 AM,ROAST,96,A,1,ROUTINE INSPECTION,EE0000399,548 PALISADES DR,LOS ANGELES,FA0177385,CA,90272,OW0183312,"ROAST PALISADES, LLC",RESTAURANT (31-60) SEATS HIGH RISK,1635,ROAST,INACTIVE,PR0170376,"['American (Traditional)', 'Vegan', 'Delis']",True,34.0455837,-118.5518135,$$,3.5,82,_GGLMVpvf2UPsGeSViDWwg
231,DAIQBONVD,11/30/2016 12:00:00 AM,SAN SUI TEI,91,A,1,ROUTINE INSPECTION,EE0001058,313 E 1ST ST,LOS ANGELES,FA0046963,CA,90012,OW0039981,YU FANMIN,RESTAURANT (31-60) SEATS HIGH RISK,1635,SAN SUI TEI,ACTIVE,PR0010263,"['Sushi Bars', 'Ramen']",True,34.050151,-118.2403344,$,4.0,344,Byo1Meyrwx-CeclpTQ3Bng
232,DAIHO0KQP,11/30/2016 12:00:00 AM,OI ASIAN FUSION,98,A,1,ROUTINE INSPECTION,EE0000846,4734 HOLLYWOOD BLVD,LOS ANGELES,FA0179705,CA,90027,OW0185199,OI LLC,RESTAURANT (0-30) SEATS HIGH RISK,1632,OI ASIAN FUSION,ACTIVE,PR0173355,"['Filipino', 'Asian Fusion', 'Burgers']",False,34.1015109972374,-118.293063073577,$,4.5,329,tqjJYK3KyBjHRDsMT9kCpw
233,DAMQCX43Q,11/29/2016 12:00:00 AM,TAQUERIA OF HOLLYWOOD,94,A,1,ROUTINE INSPECTION,EE0000822,6751 SANTA MONICA BLVD,LOS ANGELES,FA0241425,CA,90038,OW0237329,FLORENTINO GRANADOS,RESTAURANT (0-30) SEATS HIGH RISK,1632,TAQUERIA OF HOLLYWOOD,ACTIVE,PR0189670,['Mexican'],False,34.0908587498275,-118.337643320946,$,4.0,40,itRbyolX26ukjA-me2SJaw
234,DAB41VLPX,11/29/2016 12:00:00 AM,CHINA BOWL,92,A,1,ROUTINE INSPECTION,EE0000723,1735 W 6TH ST,LOS ANGELES,FA0014589,CA,90017,OW0036050,"TO, HUNG",RESTAURANT (0-30) SEATS HIGH RISK,1632,CHINA BOWL,INACTIVE,PR0040094,['Chinese'],False,34.058048,-118.270696,$,4.5,16,X_lLO4Z0_2s-FM3BJqCLaw
235,DAUSX4WAW,11/29/2016 12:00:00 AM,FIRST STREET CUISINE,91,A,1,ROUTINE INSPECTION,EE0000366,2200 E 15TH ST,LOS ANGELES,FA0175424,CA,90021,OW0181981,RICKY ROMO INC,RESTAURANT (31-60) SEATS HIGH RISK,1635,FIRST STREET CUISINE,ACTIVE,PR0168571,['Caterers'],False,34.0217285,-118.2326584,blank,5.0,3,siXKBUS0aigbYVKCliceAg
236,DAVEAGRGE,11/29/2016 12:00:00 AM,FORD'S FILLING STATION,96,A,1,ROUTINE INSPECTION,EE0000122,500 WORLD WAY #5GF,LOS ANGELES,FA0138539,CA,90045,OW0002986,"AREAS USA LAX, LLC",RESTAURANT (61-150) SEATS HIGH RISK,1638,FORD'S FILLING STATION,ACTIVE,PR0122870,['American (Traditional)'],False,33.9405737073105,-118.404479741574,$$,2.5,232,sNnQ0dMLGMdrZoMnNNvKeA
237,DAMBWBTTX,11/29/2016 12:00:00 AM,PITA BAR & GRILL,92,A,1,ROUTINE INSPECTION,EE0000726,519 N FAIRFAX AVE,LOS ANGELES,FA0028544,CA,90036,OW0004513,"BEST SANDWICH FACTORY, LLC",RESTAURANT (0-30) SEATS HIGH RISK,1632,PITA BAR & GRILL,ACTIVE,PR0021833,"['Mediterranean', 'Middle Eastern', 'Salad']",False,34.0806379,-118.3614732,$$,4.5,718,qv4VV4RbCCmGUAr3EcGEYA
238,DAVYEMAS9,11/29/2016 12:00:00 AM,CHECKER'S RESTAURANT,96,A,1,ROUTINE INSPECTION,EE0000721,535 S GRAND AVE,LOS ANGELES,FA0014355,CA,90071,OW0007938,CHSP TRS LOS ANGELES LLC,RESTAURANT (61-150) SEATS HIGH RISK,1638,CHECKER'S RESTAURANT,ACTIVE,PR0043653,"['Bars', 'American (Traditional)']",False,34.049392,-118.2548728,$$,3.5,127,VI8FM3Jhtwn0XsmVJAD-Tg
239,DAQFLEYVL,11/29/2016 12:00:00 AM,SKEWERS,96,A,1,ROUTINE INSPECTION,EE0000122,500 WORLD WAY #5C,LOS ANGELES,FA0033342,CA,90045,OW0229160,"DN DAKOTA / JME LAX 8549 PUCKS, LLC",RESTAURANT (61-150) SEATS HIGH RISK,1638,SKEWERS,ACTIVE,PR0000516,['Asian Fusion'],False,33.9425556,-118.4052365,blank,2.0,8,3SbQIHvB-2SX21uuPk4Vag
240,DAMX29NUZ,11/29/2016 12:00:00 AM,SAGE VEGAN BISTRO,97,A,1,ROUTINE INSPECTION,EE0000923,1700 W SUNSET BLVD,LOS ANGELES,FA0138656,CA,90026,OW0101988,SAGE VEGAN BISTRO ECHO PARK LLC,RESTAURANT (31-60) SEATS HIGH RISK,1635,SAGE VEGAN BISTRO,ACTIVE,PR0123009,"['Vegan', 'Brewpubs']",False,34.077123,-118.258714,$$,4.0,1815,L3YM8cAda9L_t_j-2C4ufA
241,DANHO7JZ2,11/29/2016 12:00:00 AM,PITA KITCHEN,94,A,1,ROUTINE INSPECTION,EE0000659,6256 WILSHIRE BLVD,LOS ANGELES,FA0138210,CA,90048,OW0101598,KFZ FOODS INC.,RESTAURANT (31-60) SEATS HIGH RISK,1635,PITA KITCHEN,ACTIVE,PR0122475,"['Mediterranean', 'Salad', 'Sandwiches']",False,34.063262,-118.365179,$$,3.5,92,wQqqhEVBI4ulTs51ZWDMBg
242,DAOEHQCMK,11/29/2016 12:00:00 AM,CUTLET LP,98,A,1,ROUTINE INSPECTION,EE0000726,412 N FAIRFAX AVE,LOS ANGELES,FA0167672,CA,90036,OW0130652,CUTLET LP,RESTAURANT (0-30) SEATS HIGH RISK,1632,CUTLET LP,ACTIVE,PR0158052,['Italian'],False,34.0786535731852,-118.361425710847,$$,4.0,1126,sPw1o5OYWE5C2JtbTXp5wg
243,DAHG0CZNY,11/23/2016 12:00:00 AM,JON AND VINNY'S,97,A,1,ROUTINE INSPECTION,EE0000726,412 N FAIRFAX AVE,LOS ANGELES,FA0171245,CA,90036,OW0130652,CUTLET LP,RESTAURANT (0-30) SEATS HIGH RISK,1632,JON AND VINNY'S,ACTIVE,PR0161150,['Italian'],False,34.0786535731852,-118.361425710847,$$,4.0,1126,sPw1o5OYWE5C2JtbTXp5wg
244,DAGKQSWPV,11/29/2016 12:00:00 AM,PARAMOUNT COFFEE PROJECT,96,A,1,ROUTINE INSPECTION,EE0000726,456 N FAIRFAX AVE,LOS ANGELES,FA0177603,CA,90036,OW0183516,PARAMOUNT COFFEE PROJECT USA,RESTAURANT (31-60) SEATS HIGH RISK,1635,PARAMOUNT COFFEE PROJECT,ACTIVE,PR0170635,"['Breakfast & Brunch', 'Cafes']",False,34.07974,-118.36114,$$,4.0,167,bCqZRDVoQw8s-jmvd0kHFg
245,DAKF67QAB,11/29/2016 12:00:00 AM,88 CHINESE & SUSHI,96,A,1,ROUTINE INSPECTION,EE0000726,418 1/2 N FAIRFAX AVE,LOS ANGELES,FA0004106,CA,90036,OW0016251,HONG KONG 88 INC.,RESTAURANT (0-30) SEATS HIGH RISK,1632,88 CHINESE & SUSHI,INACTIVE,PR0002808,"['Chinese', 'Sushi Bars']",True,34.07878,-118.36113,$$,3.0,279,OrGEfAXmA8PWptQR5rKNrw
246,DA145BL6N,11/29/2016 12:00:00 AM,MATTEO'S,93,A,1,ROUTINE INSPECTION,EE0000338,2321 WESTWOOD BLVD,LOS ANGELES,FA0039330,CA,90064,OW0036548,TRIPLE C AND T INC,RESTAURANT (151 + ) SEATS HIGH RISK,1641,MATTEO'S,ACTIVE,PR0002850,['Italian'],False,34.0417855,-118.4301057,$$$,4.0,162,fU9nnj0fm039XgHemUoq7A
247,DAQQDG3AT,11/29/2016 12:00:00 AM,RALPHS MARKET #759,92,A,1,ROUTINE INSPECTION,EE0000911,10861 WEYBURN AVE,LOS ANGELES,FA0045717,CA,90024,OW0029458,RALPHS GROCERY COMPANY,RESTAURANT (0-30) SEATS MODERATE RISK,1631,JUICE BAR,ACTIVE,PR0161377,['Bars'],False,34.0631,-118.44362,$,4.5,27,35LG4UfojynOWmoCTV2z4A
248,DAQQDG3AT,11/29/2016 12:00:00 AM,RALPHS MARKET #759,92,A,1,ROUTINE INSPECTION,EE0000911,10861 WEYBURN AVE,LOS ANGELES,FA0045717,CA,90024,OW0029458,RALPHS GROCERY COMPANY,RESTAURANT (0-30) SEATS MODERATE RISK,1631,JUICE BAR,ACTIVE,PR0161377,['Department Stores'],False,34.0634119,-118.44373,$$,3.0,292,x_ZFlJO8lhPyWmZ5eMPYpA
249,DAIBYU9AP,11/29/2016 12:00:00 AM,RALPHS MARKET #759,93,A,1,ROUTINE INSPECTION,EE0000911,10861 WEYBURN AVE,LOS ANGELES,FA0045717,CA,90024,OW0029458,RALPHS GROCERY COMPANY,RESTAURANT (0-30) SEATS HIGH RISK,1632,DELI,ACTIVE,PR0005168,['Bars'],False,34.0631,-118.44362,$,4.5,27,35LG4UfojynOWmoCTV2z4A
250,DAIBYU9AP,11/29/2016 12:00:00 AM,RALPHS MARKET #759,93,A,1,ROUTINE INSPECTION,EE0000911,10861 WEYBURN AVE,LOS ANGELES,FA0045717,CA,90024,OW0029458,RALPHS GROCERY COMPANY,RESTAURANT (0-30) SEATS HIGH RISK,1632,DELI,ACTIVE,PR0005168,['Department Stores'],False,34.0634119,-118.44373,$$,3.0,292,x_ZFlJO8lhPyWmZ5eMPYpA
251,DAHX9G5ZZ,11/29/2016 12:00:00 AM,RALPHS MARKET #759,98,A,1,ROUTINE INSPECTION,EE0000911,10861 WEYBURN AVE,LOS ANGELES,FA0045717,CA,90024,OW0029458,RALPHS GROCERY COMPANY,RESTAURANT (0-30) SEATS LOW RISK,1630,WINE BAR,ACTIVE,PR0161376,['Bars'],False,34.0631,-118.44362,$,4.5,27,35LG4UfojynOWmoCTV2z4A
252,DAHX9G5ZZ,11/29/2016 12:00:00 AM,RALPHS MARKET #759,98,A,1,ROUTINE INSPECTION,EE0000911,10861 WEYBURN AVE,LOS ANGELES,FA0045717,CA,90024,OW0029458,RALPHS GROCERY COMPANY,RESTAURANT (0-30) SEATS LOW RISK,1630,WINE BAR,ACTIVE,PR0161376,['Department Stores'],False,34.0634119,-118.44373,$$,3.0,292,x_ZFlJO8lhPyWmZ5eMPYpA
253,DAQM1ZHKI,11/29/2016 12:00:00 AM,AFC SUSHI AT RALPH'S #759,97,A,1,ROUTINE INSPECTION,EE0000911,10861 WEYBURN AVE,LOS ANGELES,FA0172239,CA,90024,OW0001761,ADVANCED FRESH CONCEPTS FRANCHISE CORP,RESTAURANT (0-30) SEATS HIGH RISK,1632,AFC SUSHI AT RALPH'S #759,ACTIVE,PR0164770,['Bars'],False,34.0631,-118.44362,$,4.5,27,35LG4UfojynOWmoCTV2z4A
254,DAQM1ZHKI,11/29/2016 12:00:00 AM,AFC SUSHI AT RALPH'S #759,97,A,1,ROUTINE INSPECTION,EE0000911,10861 WEYBURN AVE,LOS ANGELES,FA0172239,CA,90024,OW0001761,ADVANCED FRESH CONCEPTS FRANCHISE CORP,RESTAURANT (0-30) SEATS HIGH RISK,1632,AFC SUSHI AT RALPH'S #759,ACTIVE,PR0164770,['Department Stores'],False,34.0634119,-118.44373,$$,3.0,292,x_ZFlJO8lhPyWmZ5eMPYpA
255,DA1POUGDC,11/29/2016 12:00:00 AM,RALPHS MARKET #759,97,A,1,ROUTINE INSPECTION,EE0000911,10861 WEYBURN AVE,LOS ANGELES,FA0045717,CA,90024,OW0029458,RALPHS GROCERY COMPANY,RESTAURANT (0-30) SEATS MODERATE RISK,1631,BAKERY,ACTIVE,PR0046677,['Bars'],False,34.0631,-118.44362,$,4.5,27,35LG4UfojynOWmoCTV2z4A
256,DA1POUGDC,11/29/2016 12:00:00 AM,RALPHS MARKET #759,97,A,1,ROUTINE INSPECTION,EE0000911,10861 WEYBURN AVE,LOS ANGELES,FA0045717,CA,90024,OW0029458,RALPHS GROCERY COMPANY,RESTAURANT (0-30) SEATS MODERATE RISK,1631,BAKERY,ACTIVE,PR0046677,['Department Stores'],False,34.0634119,-118.44373,$$,3.0,292,x_ZFlJO8lhPyWmZ5eMPYpA
257,DA4LO9MUH,11/23/2016 12:00:00 AM,TARGET STORE #T2774,94,A,1,ROUTINE INSPECTION,EE0000911,10861 WEYBURN AVE,LOS ANGELES,FA0071919,CA,90024,OW0035036,TARGET CORPORATION,RESTAURANT (0-30) SEATS LOW RISK,1630,STARBUCKS / TARGET T2774,ACTIVE,PR0002710,['Bars'],False,34.0631,-118.44362,$,4.5,27,35LG4UfojynOWmoCTV2z4A
258,DA4LO9MUH,11/23/2016 12:00:00 AM,TARGET STORE #T2774,94,A,1,ROUTINE INSPECTION,EE0000911,10861 WEYBURN AVE,LOS ANGELES,FA0071919,CA,90024,OW0035036,TARGET CORPORATION,RESTAURANT (0-30) SEATS LOW RISK,1630,STARBUCKS / TARGET T2774,ACTIVE,PR0002710,['Department Stores'],False,34.0634119,-118.44373,$$,3.0,292,x_ZFlJO8lhPyWmZ5eMPYpA
259,DA30TQMSV,11/29/2016 12:00:00 AM,MIMA'S,97,A,1,ROUTINE INSPECTION,EE0000721,628 ST. VINCENT CT,LOS ANGELES,FA0241634,CA,90014,OW0237474,KEVORK BILAMEJIAN,RESTAURANT (0-30) SEATS HIGH RISK,1632,MIMA'S,ACTIVE,PR0189781,"['Mediterranean', 'Armenian']",False,34.0457540398101,-118.253660565196,$,5.0,24,AEPPyGiMb02mVEPLk2n8nQ
260,DABKB0EVC,08/26/2016 12:00:00 AM,RALPHS MARKET # 100,98,A,1,ROUTINE INSPECTION,EE0000835,7257 W SUNSET BLVD,LOS ANGELES,FA0069210,CA,90046,OW0029458,RALPHS GROCERY COMPANY,RESTAURANT (0-30) SEATS LOW RISK,1630,STARBUCKS KIOSK INSIDE RALPH'S,ACTIVE,PR0033596,['Grocery'],False,34.0985147558951,-118.348439213937,$$,3.5,218,hPYZ6ENqgBabqTQEwrCqvQ
261,DA0AY1LAZ,08/26/2016 12:00:00 AM,RALPHS MARKET # 100,97,A,1,ROUTINE INSPECTION,EE0000835,7257 W SUNSET BLVD,LOS ANGELES,FA0069210,CA,90046,OW0029458,RALPHS GROCERY COMPANY,RESTAURANT (0-30) SEATS HIGH RISK,1632,RALPH'S SERVICE DELI,ACTIVE,PR0020471,['Grocery'],False,34.0985147558951,-118.348439213937,$$,3.5,218,hPYZ6ENqgBabqTQEwrCqvQ
262,DAHN5FNDS,08/26/2016 12:00:00 AM,RALPHS MARKET # 100,95,A,1,ROUTINE INSPECTION,EE0000835,7257 W SUNSET BLVD,LOS ANGELES,FA0069210,CA,90046,OW0029458,RALPHS GROCERY COMPANY,RESTAURANT (0-30) SEATS MODERATE RISK,1631,RALPH'S BAKERY SHOP # 100,ACTIVE,PR0025636,['Grocery'],False,34.0985147558951,-118.348439213937,$$,3.5,218,hPYZ6ENqgBabqTQEwrCqvQ
263,DAEECRN8I,11/28/2016 12:00:00 AM,AFC AT RALPHS#100,99,A,1,ROUTINE INSPECTION,EE0000835,7257 W SUNSET BLVD,LOS ANGELES,FA0167306,CA,90046,OW0001761,ADVANCED FRESH CONCEPTS FRANCHISE CORP,RESTAURANT (0-30) SEATS HIGH RISK,1632,AFC AT RALPHS#100,ACTIVE,PR0157666,['Grocery'],False,34.0985147558951,-118.348439213937,$$,3.5,218,hPYZ6ENqgBabqTQEwrCqvQ
264,DAHXNOBDU,11/29/2016 12:00:00 AM,PIECE O PIZZA AND PASTA,90,A,1,ROUTINE INSPECTION,EE0000144,11700 VENICE BLVD,LOS ANGELES,FA0175323,CA,90066,OW0181884,JUAN BAUTISTA,RESTAURANT (0-30) SEATS HIGH RISK,1632,PIECE O PIZZA AND PASTA,ACTIVE,PR0168461,"['Pizza', 'Burgers', 'Sandwiches']",False,34.00824,-118.42458,$,3.5,154,jSe5oStcZULmpb6eKx3wsA
265,DAMF08MYI,11/29/2016 12:00:00 AM,MAXWELL CAFE WAREHOUSE,97,A,1,ROUTINE INSPECTION,EE0000953,13329 W WASHINGTON BLVD,LOS ANGELES,FA0066599,CA,90066,OW0004557,BEVERLY CENTER NOVEL LLC,RESTAURANT (31-60) SEATS HIGH RISK,1635,MAXWELL CAFE,ACTIVE,PR0016102,['Breakfast & Brunch'],False,33.9929316446248,-118.443264725282,$$,3.5,360,zHDqeVPqeVaYaIGXPS793A
266,DAR0OLFIW,11/29/2016 12:00:00 AM,PASEO SAN MIGUEL SALVADORAN CUISINE,97,A,1,ROUTINE INSPECTION,EE0001025,6051 S VERMONT AVE,LOS ANGELES,FA0241380,CA,90044-3747,OW0237306,AGUILASMORALES INC,RESTAURANT (31-60) SEATS HIGH RISK,1635,PASEO SAN MIGUEL SALVADORAN CUISINE,ACTIVE,PR0189488,['Salvadoran'],False,33.9849565737421,-118.291702257942,$$,4.0,34,1HrogOZbNczL9qeyJqNJRQ
267,DAVNQ2G04,11/29/2016 12:00:00 AM,DRIPS & SWIRLS,90,A,1,ROUTINE INSPECTION,EE0000531,3076 W 8TH ST,LOS ANGELES,FA0222766,CA,90005,OW0227560,"DRIPS & SWIRLS , LLC",RESTAURANT (0-30) SEATS MODERATE RISK,1631,DRIPS & SWIRLS,ACTIVE,PR0189559,"['Coffee & Tea', 'Ice Cream & Frozen Yogurt']",False,34.05757,-118.29377,$,4.5,510,Gt6nE1iNvBB5CLt9VpuXuA
268,DAOFYRKKY,11/29/2016 12:00:00 AM,LEMONADE,95,A,1,ROUTINE INSPECTION,EE0000122,500 WORLD WAY #5A,LOS ANGELES,FA0065653,CA,90045,OW0009036,"CREWS OF CALIFORNIA, INC",RESTAURANT (61-150) SEATS HIGH RISK,1638,LEMONADE,ACTIVE,PR0009104,"['Cafes', 'American (New)', 'Vegetarian']",False,33.9411074693798,-118.40430640849,$$,3.5,666,NIfvfVLbXGlGJOm4tmHwvg
269,DAHWKA09B,11/29/2016 12:00:00 AM,SAMOSA HOUSE,92,A,401,OWNER INITIATED ROUTINE INSPECT.,EE0000733,11510 W WASHINGTON BLVD,LOS ANGELES,FA0046826,CA,90066,OW0035737,THE SPICES BOX INC,RESTAURANT (61-150) SEATS HIGH RISK,1638,SAMOSA HOUSE RESTAURANT,ACTIVE,PR0119863,"['Indian', 'Vegetarian', 'Vegan']",False,34.000963,-118.416193,$,4.0,919,VlK70WlHut29D1rwtE3maA
270,DAHWKA09B,11/29/2016 12:00:00 AM,SAMOSA HOUSE,92,A,401,OWNER INITIATED ROUTINE INSPECT.,EE0000733,11510 W WASHINGTON BLVD,LOS ANGELES,FA0046826,CA,90066,OW0035737,THE SPICES BOX INC,RESTAURANT (61-150) SEATS HIGH RISK,1638,SAMOSA HOUSE RESTAURANT,ACTIVE,PR0119863,"['Indian', 'Vegetarian', 'Vegan']",False,34.000963,-118.416193,$,4.0,919,VlK70WlHut29D1rwtE3maA
271,DALZBPYGH,11/16/2016 12:00:00 AM,SAMOSA HOUSE,87,B,1,ROUTINE INSPECTION,EE0000733,11510 W WASHINGTON BLVD,LOS ANGELES,FA0046826,CA,90066,OW0035737,THE SPICES BOX INC,RESTAURANT (61-150) SEATS HIGH RISK,1638,SAMOSA HOUSE RESTAURANT,ACTIVE,PR0119863,"['Indian', 'Vegetarian', 'Vegan']",False,34.000963,-118.416193,$,4.0,919,VlK70WlHut29D1rwtE3maA
272,DALZBPYGH,11/16/2016 12:00:00 AM,SAMOSA HOUSE,87,B,1,ROUTINE INSPECTION,EE0000733,11510 W WASHINGTON BLVD,LOS ANGELES,FA0046826,CA,90066,OW0035737,THE SPICES BOX INC,RESTAURANT (61-150) SEATS HIGH RISK,1638,SAMOSA HOUSE RESTAURANT,ACTIVE,PR0119863,"['Indian', 'Vegetarian', 'Vegan']",False,34.000963,-118.416193,$,4.0,919,VlK70WlHut29D1rwtE3maA
273,DADCBAAJB,11/29/2016 12:00:00 AM,JUICE SERVED HERE,94,A,1,ROUTINE INSPECTION,EE0000904,3827 W SUNSET BLVD,LOS ANGELES,FA0174356,CA,90026,OW0181037,JUICE SERVED HERE LLC,RESTAURANT (0-30) SEATS LOW RISK,1630,JUICE SERVED HERE,INACTIVE,PR0167255,"['Juice Bars & Smoothies', 'Coffee & Tea', 'Vegan']",True,34.09172,-118.2792,$$$,4.0,46,y0L4LI3l6NyYTu70G7CAWQ
274,DAJWJCKE1,11/29/2016 12:00:00 AM,LA PIRAMIDE SALVADORENA REST.,96,A,1,ROUTINE INSPECTION,EE0000722,4021 BEVERLY BLVD,LOS ANGELES,FA0241658,CA,90004,OW0237495,DOMITILA CACERES,RESTAURANT (0-30) SEATS HIGH RISK,1632,LA PIRAMIDE SALVADORENA REST.,ACTIVE,PR0189807,['Salvadoran'],False,34.0764349,-118.2967147,$$,5.0,4,kW2-BjdJE9DX_9z0vHp9PA
275,DAQIZS3DH,11/29/2016 12:00:00 AM,MASA OF ECHO PARK BAKERY,95,A,1,ROUTINE INSPECTION,EE0000923,1800 W SUNSET BLVD,LOS ANGELES,FA0024015,CA,90026,OW0036160,TOMIRO LLC,RESTAURANT (31-60) SEATS HIGH RISK,1635,MASA OF ECHO PARK BAKERY,ACTIVE,PR0028280,"['American (New)', 'Pizza', 'Salad']",False,34.077585,-118.259599,$$,4.0,3652,CbW8U0QAwh5XRkaLt0xNZA
276,DA3DBWOXJ,11/29/2016 12:00:00 AM,BEEF STEAK,94,A,1,ROUTINE INSPECTION,EE0000951,7661 MELROSE AVE,LOS ANGELES,FA0202975,CA,90046-7442,OW0208245,"ENGLISH IVY, LLC",RESTAURANT (61-150) SEATS HIGH RISK,1638,BEEF STEAK,ACTIVE,PR0175287,"['Vegetarian', 'Juice Bars & Smoothies']",False,34.0838579963433,-118.35681963712,$$,4.0,44,asU5GKPgr3r1x3zs6rOozQ
277,DA0KP3X3B,11/29/2016 12:00:00 AM,ATMOSPHERE CAFE,90,A,1,ROUTINE INSPECTION,EE0000144,12034 VENICE BLVD,LOS ANGELES,FA0172083,CA,90066,OW0179135,ATMOSPHERE CAFE LLC,RESTAURANT (0-30) SEATS HIGH RISK,1632,ATMOSPHERE CAFE,ACTIVE,PR0164588,"['Breakfast & Brunch', 'Wine Bars', 'Modern European']",False,34.00531,-118.42961,$$,4.0,229,U7fACjrjWD-eGGEuqMTD9g
278,DAF3WW3JX,11/29/2016 12:00:00 AM,ROCK & BREWS,82,B,1,ROUTINE INSPECTION,EE0000633,100 WORLD WAY STE 154,LOS ANGELES,FA0180523,CA,90045,OW0185882,"CREWS LAX1, LLC",RESTAURANT (61-150) SEATS HIGH RISK,1638,ROCK & BREWS,ACTIVE,PR0174297,"['Burgers', 'American (New)', 'Beer Bar']",False,33.9443749,-118.3984405,$$,2.5,389,O9w_-6yJaOzXqCJf7yt4mA
279,DAPBTOMCQ,11/29/2016 12:00:00 AM,KIM HUNG BAKERY,94,A,1,ROUTINE INSPECTION,EE0000740,959 N BROADWAY,LOS ANGELES,FA0020047,CA,90012,OW0037257,"VAN QUANG, NAM",RESTAURANT (0-30) SEATS MODERATE RISK,1631,KIM HUNG BAKERY,ACTIVE,PR0001097,['Bakeries'],False,34.0656439,-118.2368197,$,4.5,13,XcDCwdyuUDTqIvXcGrx5SQ
280,DALBM7SDZ,11/29/2016 12:00:00 AM,CREAMISTRY,97,A,1,ROUTINE INSPECTION,EE0000854,3510 W 8TH ST UNIT A,LOS ANGELES,FA0240691,CA,90005,OW0236742,GOLDEN TIGER INVESTING GROUP LLC,RESTAURANT (0-30) SEATS MODERATE RISK,1631,CREAMISTRY,ACTIVE,PR0189811,"['Desserts', 'Ice Cream & Frozen Yogurt']",False,34.0573255861567,-118.307073300724,$$,4.0,253,pluMlF2taNqPUqmjgYugQA
281,DA3L6EXAU,11/29/2016 12:00:00 AM,SENOR FISH INC.,91,A,1,ROUTINE INSPECTION,EE0000721,155 S MAIN ST,LOS ANGELES,FA0172291,CA,90012-3701,OW0179322,SENOR FISH INC.,RESTAURANT (61-150) SEATS HIGH RISK,1638,SENOR FISH INC.,ACTIVE,PR0164830,"['Mexican', 'Seafood']",False,34.0514183,-118.2443466,$$,3.0,102,fhgZPoQLejuh_iGgQ5Cp8A
282,DAMZTMPTB,11/29/2016 12:00:00 AM,SUNNY GRILL,95,A,1,ROUTINE INSPECTION,EE0000144,12035 VENICE BLVD,LOS ANGELES,FA0160563,CA,90066,OW0125519,SUNNY GRILL INC.,RESTAURANT (31-60) SEATS HIGH RISK,1635,SUNNY GRILL,ACTIVE,PR0148652,['American (Traditional)'],False,34.00594,-118.4301,$,4.0,260,j1FFB3WnLc09H8YR0N1jkQ
283,DAWHAO3UV,11/29/2016 12:00:00 AM,EL CARMEN,93,A,1,ROUTINE INSPECTION,EE0000468,8138 W 3RD ST,LOS ANGELES,FA0012157,CA,90048,OW0034494,"SUPERNORMAL PRODUCTS, INC",RESTAURANT (61-150) SEATS HIGH RISK,1638,EL CARMEN,ACTIVE,PR0035073,"['Mexican', 'Cocktail Bars']",False,34.0720873,-118.367282,$$,4.0,885,rX4XXEwzSea-EJxuMYAFvw
284,DAEQRVEKV,11/29/2016 12:00:00 AM,GATEWAY NEWSTANDS,96,A,1,ROUTINE INSPECTION,EE0000853,5900 W WILSHIRE BLVD # #110,LOS ANGELES,FA0062593,CA,90036,OW0010196,DOH JEONG PHIL,RESTAURANT (0-30) SEATS MODERATE RISK,1631,GATEWAY NEWSTANDS,ACTIVE,PR0013692,"['Coffee & Tea', 'Delis', 'Bagels']",False,34.0624221360784,-118.358738087118,blank,3.0,4,TYK1-rVDr15q-OD88SdBvA
285,DAEOY5FZ6,11/29/2016 12:00:00 AM,DECARLO PIZZA,93,A,1,ROUTINE INSPECTION,EE0000144,12460 VENICE BLVD,LOS ANGELES,FA0053886,CA,90066,OW0101406,"DECARLO PIZZA, INC.",RESTAURANT (0-30) SEATS HIGH RISK,1632,DECARLO PIZZA,ACTIVE,PR0122219,"['Pizza', 'Italian']",False,34.0029044,-118.4346698,$$,3.5,37,OAwN2gD7Wu6EW4QTex4QdA
286,DAFGNXLAU,11/29/2016 12:00:00 AM,MI QUERIDO PULGARCITO,92,A,1,ROUTINE INSPECTION,EE0000723,2500 W PICO BLVD,LOS ANGELES,FA0024786,CA,90006,OW0037106,"VALDEZ, JORGE",RESTAURANT (31-60) SEATS HIGH RISK,1635,MI QUERIDO PULGARCITO,ACTIVE,PR0044908,['Salvadoran'],False,34.0472182631493,-118.291767016053,$,4.0,10,qJoeR6_CoXFuRqFwa1wAgQ
287,DATDNJ45Y,11/29/2016 12:00:00 AM,EMERALD THAI CUISINE,92,A,1,ROUTINE INSPECTION,EE0000727,9315 VENICE BLVD,LOS ANGELES,FA0177158,CA,90034,OW0183117,THONG THONG BUSSABONG,RESTAURANT (31-60) SEATS HIGH RISK,1635,EMERALD THAI CUISINE,ACTIVE,PR0170122,['Thai'],False,34.0261,-118.39476,$,3.5,181,tg2HKwOAunf-epdc_-Njjw
288,DABF7CJMW,11/29/2016 12:00:00 AM,SENIOR FISH,96,A,1,ROUTINE INSPECTION,EE0000923,1701 W SUNSET BLVD,LOS ANGELES,FA0048106,CA,90026,OW0032190,SENIOR FISH INC.,RESTAURANT (61-150) SEATS HIGH RISK,1638,SENIOR FISH,ACTIVE,PR0047825,"['Mexican', 'Seafood', 'Bars']",False,34.0773897069776,-118.258504271507,$$,3.0,203,dKVIKCk_hXw01ivIvWGEcQ
289,DA00JRRML,11/29/2016 12:00:00 AM,MESA BRAZILIAN EATERY,94,A,1,ROUTINE INSPECTION,EE0000911,10917 LINDBROOK DR,LOS ANGELES,FA0157916,CA,90024,OW0123035,BLISS MFG INC,RESTAURANT (0-30) SEATS HIGH RISK,1632,MESA BRAZILIAN EATERY,ACTIVE,PR0146014,['Brazilian'],False,34.0595745295286,-118.445004299283,$,4.5,370,Wci7mf0ASeackBYFQm_7nA
