,serial_number,activity_date,facility_name,score,grade,service_code,service_description,employee_id,facility_address,facility_city,facility_id,facility_state,facility_zip,owner_id,owner_name,pe_description,program_element_pe,program_name,program_status,record_id,food_type,in_business,latitude,longitude,price,rating,review_count,yelp_id
0,DA0VBDBFF,08/22/2017 12:00:00 AM,DOMINO'S PIZZA,92,A,1,ROUTINE INSPECTION,EE0000846,5065 HOLLYWOOD BLVD STE 101,LOS ANGELES,FA0060991,CA,90027,OW0010606,E.M. PIZZA INC.,RESTAURANT (0-30) SEATS MODERATE RISK,1631,DOMINO'S PIZZA,ACTIVE,PR0010137,"['Pizza', 'Chicken Wings', 'Sandwiches']",False,34.1019519006337,-118.30006070841,$$,2.5,66,1rwTaABGIMCZu4GWabu3eQ
1,DA48HZSG3,08/22/2017 12:00:00 AM,RICK'S PRODUCE MARKET,96,A,1,ROUTINE INSPECTION,EE0000893,755 N VIRGIL AVE,LOS ANGELES,FA0249095,CA,90029,OW0243397,RICARDO G DOMINGUEZ & ALEJANDRO VERDUZCO,RESTAURANT (0-30) SEATS MODERATE RISK,1631,RICK'S PRODUCE MARKET,ACTIVE,PR0197804,"['Farmers Market', 'Juice Bars & Smoothies', 'Acai Bowls']",False,34.0848601440562,-118.287047334015,$$,5.0,44,bUBLRYI_E4WaGm_cAAPxJg
2,DAH0UEKZ2,08/22/2017 12:00:00 AM,CUTIES CAFE,97,A,1,ROUTINE INSPECTION,EE0000893,710 N HELIOTROPE DR,LOS ANGELES,FA0249282,CA,90029,OW0243562,CUTIES CAFE LLC,RESTAURANT (0-30) SEATS LOW RISK,1630,CUTIES CAFE,ACTIVE,PR0198009,['Coffee & Tea'],False,34.08401,-118.29471,$$,4.5,68,pGu8S_rl8duDVAf-T4cLxQ
3,DA66SEQFK,08/21/2017 12:00:00 AM,BURGER KING #5892,97,A,1,ROUTINE INSPECTION,EE0000997,3501 E WHITTIER BLVD,LOS ANGELES,FA0011351,CA,90023,OW0038416,"WANG, STEVE",RESTAURANT (61-150) SEATS MODERATE RISK,1637,BURGER KING #5892,ACTIVE,PR0047308,['Burgers'],False,34.0268584973962,-118.198178253061,$,1.5,7,wY7PkHUL7Wsf585b0xkg_A
4,DAUL1NNPN,08/21/2017 12:00:00 AM,CHILI THAI,82,B,1,ROUTINE INSPECTION,EE0000338,10889 W PICO BLVD,LOS ANGELES,FA0059656,CA,90064,OW0035416,"THAWATCHAI, LUNGGARSIT ET AL",RESTAURANT (0-30) SEATS HIGH RISK,1632,CHILI THAI,INACTIVE,PR0018721,['Thai'],False,34.0399241,-118.4294456,$$,3.0,287,v1ZE4XOTvGRVfJr6B3K47g
5,DA86HDTQY,08/21/2017 12:00:00 AM,TARGET STORE #T2774,94,A,1,ROUTINE INSPECTION,EE0000911,10861 WEYBURN AVE,LOS ANGELES,FA0071919,CA,90024,OW0035036,TARGET CORPORATION,RESTAURANT (0-30) SEATS LOW RISK,1630,STARBUCKS / TARGET T2774,ACTIVE,PR0002710,['Department Stores'],False,34.0634119,-118.44373,$$,3.0,291,x_ZFlJO8lhPyWmZ5eMPYpA
6,DAZ626UI8,08/21/2017 12:00:00 AM,ASIA KITCHEN,96,A,1,ROUTINE INSPECTION,EE0000144,11279 VENICE BLVD,LOS ANGELES,FA0178618,CA,90066,OW0184334,XIGE YANG,RESTAURANT (0-30) SEATS HIGH RISK,1632,ASIA KITCHEN,ACTIVE,PR0172086,"['Chinese', 'Asian Fusion']",False,34.011917,-118.419675,$,3.0,56,D5Zo6W0n0PiJZ9Y5r5RENQ
7,DAKPDODAN,08/21/2017 12:00:00 AM,LA FITNESS JUICE BAR,94,A,1,ROUTINE INSPECTION,EE0000709,1628 N EL CENTRO AVE,LOS ANGELES,FA0138982,CA,90028,OW0102258,HOOLYWWOD SMOOTHIR INC,RESTAURANT (0-30) SEATS MODERATE RISK,1631,LA FITNESS JUICE BAR,ACTIVE,PR0123360,"['Gyms', 'Trainers', 'Yoga']",False,34.1006088,-118.3233185,blank,3.0,385,dWX_6ciOtIQBJm6WRoBHBg
8,DAERBUXAM,08/21/2017 12:00:00 AM,THE JERK SPOT,90,A,1,ROUTINE INSPECTION,EE0000043,9006 VENICE BLVD,LOS ANGELES,FA0164392,CA,90232,OW0127742,COURTNEY WILLIAMS,RESTAURANT (0-30) SEATS HIGH RISK,1632,THE JERK SPOT,ACTIVE,PR0152662,"['Caribbean', 'Seafood']",False,34.0275895406312,-118.39096834878,$,4.0,268,0jMeb7Pp8Tqj9YAu0Yi8hA
9,DAJX4R0X0,08/21/2017 12:00:00 AM,WABA GRILL,94,A,1,ROUTINE INSPECTION,EE0000997,2324 E WHITTIER BLVD STE 8,LOS ANGELES,FA0054579,CA,90023,OW0031359,SALT N PEPPER INC,RESTAURANT (0-30) SEATS MODERATE RISK,1631,WABA GRILL,ACTIVE,PR0045897,"['Asian Fusion', 'Fast Food']",False,34.0344452486836,-118.216339303335,$,3.0,24,_Ga5CSf8QlSBaKnNOAoZnw
10,DAGDFYOF6,08/21/2017 12:00:00 AM,BIRDIES,86,B,1,ROUTINE INSPECTION,EE0000721,314 W OLYMPIC BLVD,LOS ANGELES,FA0171790,CA,90015-1606,OW0178851,"MARBLES 314, INC.",RESTAURANT (0-30) SEATS HIGH RISK,1632,BIRDIES,INACTIVE,PR0164245,"['Chicken Shop', 'Donuts', 'Coffee & Tea']",False,34.041836309712,-118.259046916196,$$,4.0,1290,eXZyAF5Xk1u-d9vnkeNPXg
11,DAABXEBCJ,08/21/2017 12:00:00 AM,HAMBURGER HABIT #2 WLA,97,A,1,ROUTINE INSPECTION,EE0000144,11223 NATIONAL BLVD,LOS ANGELES,FA0063162,CA,90025,OW0028383,"PEZESHKI,FARHAD",RESTAURANT (31-60) SEATS HIGH RISK,1635,HAMBURGER HABIT #2 WLA,ACTIVE,PR0022938,['Burgers'],False,34.0273034315832,-118.429574530444,$,3.0,452,Ocdamt8Rj1OwLz0jUXrvTw
12,DAHFP2SBA,08/21/2017 12:00:00 AM,MI COCINTA CHAPINA RESTAURANTE,90,A,1,ROUTINE INSPECTION,EE0000721,1325 W VENICE BLVD,LOS ANGELES,FA0061335,CA,90006,OW0100768,"GURRIDO, RODOLFO",RESTAURANT (0-30) SEATS HIGH RISK,1632,MI COCINTA CHAPINA RESTAURANTE,ACTIVE,PR0005244,"['Latin American', 'Seafood', 'Breakfast & Brunch']",False,34.04332,-118.28249,$$,5.0,7,Md3Pxb2R6xA4McL-L74gbA
13,DAVT5FDSZ,08/21/2017 12:00:00 AM,CHICO'S MEXICAN RESTAURANT,92,A,1,ROUTINE INSPECTION,EE0000923,100 N AVENUE 50,LOS ANGELES,FA0174388,CA,90042,OW0181070,CHICO'S NETWORK INC,RESTAURANT (0-30) SEATS HIGH RISK,1632,CHICO'S MEXICAN RESTAURANT,ACTIVE,PR0167287,"['Mexican', 'Salad', 'Seafood']",False,34.1054623740804,-118.202531530688,$,4.0,182,C30WU44IAIqsL23rBCd9Mg
14,DALFPOXPZ,08/21/2017 12:00:00 AM,JAMBA JUICE #399,96,A,1,ROUTINE INSPECTION,EE0000924,11074 SANTA MONICA BLVD,LOS ANGELES,FA0241438,CA,90025,OW0208261,BREA JUICE COMPANY LLC,RESTAURANT (0-30) SEATS MODERATE RISK,1631,JAMBA JUICE #399,ACTIVE,PR0189550,['Juice Bars & Smoothies'],False,34.0477129,-118.4434554,$,3.0,101,9ljUskXbiDvF1KgwzSqvpQ
15,DALRHWLOC,08/21/2017 12:00:00 AM,PAMORE PIZZA,93,A,1,ROUTINE INSPECTION,EE0000176,3340 S LA CIENEGA BLVD,LOS ANGELES,FA0042941,CA,90016,OW0018649,K-E PIZZA INC.,RESTAURANT (0-30) SEATS MODERATE RISK,1631,PAMORE PIZZA,ACTIVE,PR0035736,"['Pizza', 'Chicken Wings']",True,34.0269199,-118.37158,$,3.5,84,1sfKfvQC5hdMkJ70kaVyEg
16,DAWSONPK8,08/21/2017 12:00:00 AM,PIZZA CREK,94,A,1,ROUTINE INSPECTION,EE0000059,8823 W PICO BLVD,LOS ANGELES,FA0245889,CA,90035,OW0240860,HUMA ENTERPRISES,RESTAURANT (0-30) SEATS HIGH RISK,1632,PIZZA CREK,ACTIVE,PR0194272,['Pizza'],False,34.0549430535072,-118.384770266712,$,4.5,19,yCQ3MAtRnraVCDzee6SlTw
17,DA6GF7AFS,08/21/2017 12:00:00 AM,THE ROOM SUSHI BAR,92,A,1,ROUTINE INSPECTION,EE0000059,8837 W PICO BLVD,LOS ANGELES,FA0222028,CA,90035,OW0226947,THE ROOM SUSHI BAR LLC,RESTAURANT (31-60) SEATS HIGH RISK,1635,THE ROOM SUSHI BAR,ACTIVE,PR0177019,"['Sushi Bars', 'Japanese', 'Soup']",False,34.05522,-118.38452,$$,4.0,297,Gja4Rs6zgy1XlUO_-0uGdQ
18,DAY0VQW0M,08/21/2017 12:00:00 AM,LA ZOO,91,A,1,ROUTINE INSPECTION,EE0000697,5333 ZOO DR,LOS ANGELES,FA0023360,CA,90027,OW0032279,SERVICE AMERICA CORP,RESTAURANT (61-150) SEATS MODERATE RISK,1637,REGGIES CAFE,ACTIVE,PR0021240,['Burgers'],False,34.1500449,-118.2835693,$$,3.0,16,5Uok2Hvnrkz0v9cdhFPtyg
19,DAY0VQW0M,08/21/2017 12:00:00 AM,LA ZOO,91,A,1,ROUTINE INSPECTION,EE0000697,5333 ZOO DR,LOS ANGELES,FA0023360,CA,90027,OW0032279,SERVICE AMERICA CORP,RESTAURANT (61-150) SEATS MODERATE RISK,1637,REGGIES CAFE,ACTIVE,PR0021240,['Mexican'],False,34.1498665039452,-118.283330486009,$$,2.5,8,as6-XlIXI9VBsu7PD9cAQg
20,DA431ASQP,08/21/2017 12:00:00 AM,LA ZOO,96,A,1,ROUTINE INSPECTION,EE0000697,5333 ZOO DR,LOS ANGELES,FA0023360,CA,90027,OW0032279,SERVICE AMERICA CORP,RESTAURANT (0-30) SEATS MODERATE RISK,1631,CHURRO FACTORY,ACTIVE,PR0035265,['Burgers'],False,34.1500449,-118.2835693,$$,3.0,16,5Uok2Hvnrkz0v9cdhFPtyg
21,DA431ASQP,08/21/2017 12:00:00 AM,LA ZOO,96,A,1,ROUTINE INSPECTION,EE0000697,5333 ZOO DR,LOS ANGELES,FA0023360,CA,90027,OW0032279,SERVICE AMERICA CORP,RESTAURANT (0-30) SEATS MODERATE RISK,1631,CHURRO FACTORY,ACTIVE,PR0035265,['Mexican'],False,34.1498665039452,-118.283330486009,$$,2.5,8,as6-XlIXI9VBsu7PD9cAQg
22,DAV2DJ3AO,08/21/2017 12:00:00 AM,LA ZOO,95,A,1,ROUTINE INSPECTION,EE0000697,5333 ZOO DR,LOS ANGELES,FA0023360,CA,90027,OW0032279,SERVICE AMERICA CORP,RESTAURANT (0-30) SEATS MODERATE RISK,1631,CAFE PICO,ACTIVE,PR0031321,['Burgers'],False,34.1500449,-118.2835693,$$,3.0,16,5Uok2Hvnrkz0v9cdhFPtyg
23,DAV2DJ3AO,08/21/2017 12:00:00 AM,LA ZOO,95,A,1,ROUTINE INSPECTION,EE0000697,5333 ZOO DR,LOS ANGELES,FA0023360,CA,90027,OW0032279,SERVICE AMERICA CORP,RESTAURANT (0-30) SEATS MODERATE RISK,1631,CAFE PICO,ACTIVE,PR0031321,['Mexican'],False,34.1498665039452,-118.283330486009,$$,2.5,8,as6-XlIXI9VBsu7PD9cAQg
24,DA3TFYE0Z,08/21/2017 12:00:00 AM,MCDONALD'S # 4989,85,B,1,ROUTINE INSPECTION,EE0000531,3454 WILSHIRE BLVD,LOS ANGELES,FA0039655,CA,90010,OW0023167,"MANGIONE, MICHEAL J",RESTAURANT (61-150) SEATS MODERATE RISK,1637,MCDONALD'S,ACTIVE,PR0038454,"['Fast Food', 'Burgers', 'Coffee & Tea']",True,34.0617097691867,-118.299421477782,$,2.0,77,OMqODrussslZbol195pXLQ
25,DA8QSJP2Y,08/21/2017 12:00:00 AM,LAWRY'S CARVERY,77,C,1,ROUTINE INSPECTION,EE0000122,1011 S FIGUEROA ST,LOS ANGELES,FA0034545,CA,90015,OW0020917,LAWRY'S RESTAURANTS INC,RESTAURANT (61-150) SEATS HIGH RISK,1638,LAWRY'S CARVERY,ACTIVE,PR0023763,"['Sandwiches', 'American (Traditional)']",False,34.0441677430205,-118.265034633416,$$,3.5,526,rm-sbtD9nkbjwkdOmkPPWg
26,DAAI4CLME,08/21/2017 12:00:00 AM,OSTERIA MAMMA,93,A,1,ROUTINE INSPECTION,EE0000828,5730 MELROSE AVE,LOS ANGELES,FA0043299,CA,90038,OW0027006,"OSTERIA MAMMA, LLC",RESTAURANT (61-150) SEATS HIGH RISK,1638,OSTERIA MAMMA,ACTIVE,PR0004294,"['Italian', 'Wine Bars']",False,34.0833586783984,-118.324724939274,$$,4.0,1327,rr-hXB0ZqXLzUP97yftp0g
27,DA9ZXGKPA,08/21/2017 12:00:00 AM,MCDONALD'S #1121,93,A,1,ROUTINE INSPECTION,EE0000729,7123 S CRENSHAW BLVD,LOS ANGELES,FA0066649,CA,90043,OW0010276,D BAILEY MANAGEMENT COMPANY,RESTAURANT (61-150) SEATS MODERATE RISK,1637,MC DONALDS,INACTIVE,PR0003812,"['Fast Food', 'Coffee & Tea', 'Burgers']",False,33.974888,-118.3310249,$,1.5,21,ku1OABw1K-Hb_vrUdbSlAA
28,DAH5HV9EQ,08/21/2017 12:00:00 AM,BIG JIM'S DONUTS,94,A,1,ROUTINE INSPECTION,EE0000997,2401 E WHITTIER BLVD,LOS ANGELES,FA0009634,CA,90023,OW0007477,"CHHOR, LISA",RESTAURANT (0-30) SEATS MODERATE RISK,1631,BIG JIM'S DONUTS,ACTIVE,PR0026831,['Donuts'],False,34.0344734191895,-118.215194702148,$,4.0,13,NS4_pAQisDV--XpGSSDsBA
29,DACS7R28L,08/21/2017 12:00:00 AM,I-PIZZA TUMBY'S,96,A,1,ROUTINE INSPECTION,EE0000729,3329 HYDE PARK BLVD,LOS ANGELES,FA0138239,CA,90043,OW0101623,"I-PIZZA TUMBY'S, INC.",RESTAURANT (0-30) SEATS MODERATE RISK,1631,I-PIZZA TUMBY'S,ACTIVE,PR0122516,['Pizza'],False,33.9807549,-118.3303211,$,3.5,43,lPhKHZq_SsdRy1Xnvf27iw
30,DASRYY3JQ,08/21/2017 12:00:00 AM,TOI ON SUNSET,93,A,1,ROUTINE INSPECTION,EE0000835,7505 1/2 W SUNSET BLVD,LOS ANGELES,FA0008390,CA,90046,OW0100610,TOI ON SUNSET CORP,RESTAURANT (31-60) SEATS HIGH RISK,1635,TOI ON SUNSET,ACTIVE,PR0012715,['Thai'],False,34.0981549,-118.3530787,$$,3.5,1092,rHQHvoqY3JofDNQS2cOFQA
31,DAOSRXC9V,08/21/2017 12:00:00 AM,LUCY'S EL ADOBE RESTAURANT,91,A,1,ROUTINE INSPECTION,EE0000828,5536 MELROSE AVE,LOS ANGELES,FA0066084,CA,90038,OW0006407,"CASADA, LUCY",RESTAURANT (61-150) SEATS HIGH RISK,1638,LUCY'S EL ADOBE RESTAURANT,ACTIVE,PR0002628,['Mexican'],False,34.0834350340603,-118.32117,$$,2.5,251,I7PAkCrR5khfe8sn4nQ4Pw
32,DAE6W0LKR,08/21/2017 12:00:00 AM,CHEEBO,90,A,1,ROUTINE INSPECTION,EE0000835,7533 W SUNSET BLVD,LOS ANGELES,FA0014356,CA,90046,OW0033188,SLAB CO LLC,RESTAURANT (31-60) SEATS HIGH RISK,1635,CHEEBO,ACTIVE,PR0011161,"['Pizza', 'Breakfast & Brunch', 'American (New)']",False,34.0981549,-118.3536219,$$,3.5,577,pFYODrNhM2RowJ0jptU4vA
33,DAFPR5V0F,08/21/2017 12:00:00 AM,SUBWAY,97,A,1,ROUTINE INSPECTION,EE0000997,3476 E WHITTIER BLVD,LOS ANGELES,FA0034720,CA,90033,OW0009293,D. GOEL CORP.,RESTAURANT (0-30) SEATS MODERATE RISK,1631,SUBWAY,ACTIVE,PR0035552,"['Sandwiches', 'Fast Food']",False,34.0264058739745,-118.198964595795,$,2.0,10,lKjyCzmB4v4dlQrBp4cpvQ
34,DAVM727VK,08/21/2017 12:00:00 AM,O SUSHI,90,A,1,ROUTINE INSPECTION,EE0000924,11082 SANTA MONICA BLVD,LOS ANGELES,FA0226497,CA,90025,OW0230612,O SUSHI,RESTAURANT (0-30) SEATS HIGH RISK,1632,O SUSHI,ACTIVE,PR0181822,"['Sushi Bars', 'Japanese', 'Asian Fusion']",False,34.047477017258,-118.44354939755,$$,3.0,139,8YIsgV6fQX_xfOTWzNoAHw
35,DAYXZCTVV,08/21/2017 12:00:00 AM,KOMODO,90,A,1,ROUTINE INSPECTION,EE0000059,8809 W PICO BLVD,LOS ANGELES,FA0032559,CA,90035,OW0019842,KOMODO LLC,RESTAURANT (0-30) SEATS HIGH RISK,1632,KOMODO,ACTIVE,PR0004719,"['Asian Fusion', 'Indonesian', 'New Mexican Cuisine']",False,34.05487395823,-118.383980020881,$$,4.5,1758,J54yhzUre29ehT4FgXTJaA
36,DASF9QMV3,08/21/2017 12:00:00 AM,SUBWAY #50477,97,A,1,ROUTINE INSPECTION,EE0000709,1813 N CAHUENGA BLVD,LOS ANGELES,FA0049826,CA,90028,OW0010145,DKU CORPORATION,RESTAURANT (0-30) SEATS MODERATE RISK,1631,SUBWAY #50477,ACTIVE,PR0039917,"['Sandwiches', 'Fast Food']",False,34.1042859,-118.3300475,$,2.0,18,nGEq3zA0AMRC5zngpJD4AQ
37,DAWOG9MD0,08/21/2017 12:00:00 AM,SUNSET THAI,95,A,1,ROUTINE INSPECTION,EE0000835,7513 W SUNSET BLVD,LOS ANGELES,FA0167332,CA,90046,OW0130378,"SUNSET THAI, LLC",RESTAURANT (31-60) SEATS HIGH RISK,1635,SUNSET THAI,ACTIVE,PR0157692,"['Thai', 'Asian Fusion']",False,34.0981549,-118.3531437,$$,3.5,281,TuoznwsbwX87ufjOTbV30w
38,DARNH9F0M,08/21/2017 12:00:00 AM,EARTH ORGANIC JUICE BAR,92,A,1,ROUTINE INSPECTION,EE0000846,1753 N HILLHURST AVE,LOS ANGELES,FA0177067,CA,90027,OW0183041,EARTH ORGANIC LLC,RESTAURANT (0-30) SEATS MODERATE RISK,1631,EARTH ORGANIC JUICE BAR,ACTIVE,PR0170016,['Juice Bars & Smoothies'],False,34.1028640305287,-118.28748063575,$$,5.0,60,bP3JpSBEFrfcX8A_nLQ18g
39,DA4KFFBVW,08/21/2017 12:00:00 AM,CAFE LOS FELIZ INC,90,A,1,ROUTINE INSPECTION,EE0000846,2118 HILLHURST AVE,LOS ANGELES,FA0175039,CA,90027,OW0181642,CAFE LOS FELIZ INC,RESTAURANT (0-30) SEATS MODERATE RISK,1631,CAFE LOS FELIZ INC,ACTIVE,PR0168140,"['Coffee & Tea', 'Sandwiches', 'Breakfast & Brunch']",False,34.110554,-118.287223,$$,4.0,685,FPBsEp6Ecp_JE7KD5NsDeA
40,DA0JML8UR,08/18/2017 12:00:00 AM,KOTOYA,96,A,1,ROUTINE INSPECTION,EE0000015,10422 NATIONAL BLVD,LOS ANGELES,FA0203209,CA,90034,OW0019927,KOTOYA LLC,RESTAURANT (0-30) SEATS HIGH RISK,1632,KOTOYA,ACTIVE,PR0175551,['Ramen'],False,34.0287551620623,-118.411274230794,$$,4.0,368,fJPNeehpCzvDyIumvz_owg
41,DAV3AZWYV,08/18/2017 12:00:00 AM,"TENGOKU LOS ANGELES, INC",91,A,1,ROUTINE INSPECTION,EE0000869,539 S WESTERN AVE,LOS ANGELES,FA0245815,CA,90020,OW0240797,"TENGOKU LOS ANGELES, INC",RESTAURANT (0-30) SEATS HIGH RISK,1632,"TENGOKU LOS ANGELES, INC",ACTIVE,PR0194192,['Ramen'],False,34.0641366545821,-118.309460922754,$$,4.0,274,izNn-d8i3Md27D_e2alI-w
42,DA3LLDOAX,08/18/2017 12:00:00 AM,WING STOP #267,95,A,1,ROUTINE INSPECTION,EE0001049,5049 E WHITTIER BLVD,LOS ANGELES,FA0055352,CA,90022,OW0011603,"FAR WEST RESTAURANT GROUP, LLC.",RESTAURANT (31-60) SEATS MODERATE RISK,1634,WING STOP #267,ACTIVE,PR0007182,['Chicken Wings'],False,34.0212274,-118.1604822,$,3.5,74,tQZ1P0MVgSB5Izv5UrqaIQ
43,DAZXC3YLA,08/18/2017 12:00:00 AM,SUPER TORTAS LUISITOS,83,B,1,ROUTINE INSPECTION,EE0000740,1908 3/4 E 1ST ST,LOS ANGELES,FA0159663,CA,90033,OW0124668,SANTIAGO GALVEZ,RESTAURANT (0-30) SEATS HIGH RISK,1632,SUPER TORTAS LUISITOS,ACTIVE,PR0147725,"['Mexican', 'Sandwiches', 'Breakfast & Brunch']",False,34.0463775,-118.2171133,$,4.5,129,rOGWuIVuORHxZW7cI4haKQ
44,DAGQKJCUW,08/18/2017 12:00:00 AM,SUBWAY #39254,95,A,1,ROUTINE INSPECTION,EE0000740,4770 E CESAR E CHAVEZ AVE STE A,LOS ANGELES,FA0071240,CA,90022,OW0036762,"TWO + TWO = FOUR, INC.",RESTAURANT (0-30) SEATS MODERATE RISK,1631,SUBWAY #39254,INACTIVE,PR0044965,"['Sandwiches', 'Fast Food']",False,34.04034,-118.16239,$,2.0,19,j0EnUZl5yiicH4YBggtmTg
45,DAJUSKUL0,08/18/2017 12:00:00 AM,PIZZA HUT #26158,98,A,1,ROUTINE INSPECTION,EE0000798,4356 LEIMERT BLVD,LOS ANGELES,FA0028666,CA,90008,OW0033717,SOUTHERN CALIFORNIA PIZZA CO LLC,RESTAURANT (0-30) SEATS MODERATE RISK,1631,PIZZA HUT 026158,ACTIVE,PR0021412,"['Pizza', 'Italian', 'Chicken Wings']",False,34.0049705505371,-118.329627990723,$$,2.0,41,fGUtUiIlK9Hv5ndCw7qiIA
46,DAW8LOXOB,08/18/2017 12:00:00 AM,RED MANGO YOGURT & SMOOTHIES,97,A,1,ROUTINE INSPECTION,EE0000122,1011 S FIGUEROA ST #B 120,LOS ANGELES,FA0172042,CA,90015,OW0179094,HAMILL ENTERPRISES,RESTAURANT (0-30) SEATS MODERATE RISK,1631,RED MANGO YOGURT & SMOOTHIES,ACTIVE,PR0164546,"['Ice Cream & Frozen Yogurt', 'Juice Bars & Smoothies', 'Acai Bowls']",False,34.0440954892715,-118.265098320367,$,3.5,106,IP9xsjUj21uxpLlVvaXe8A
47,DAFSK0NHQ,08/18/2017 12:00:00 AM,IN N OUT DAILY MARKET,94,A,1,ROUTINE INSPECTION,EE0000740,5048 HUNTINGTON DR S,LOS ANGELES,FA0175610,CA,90032,OW0182143,EMME LAN P. DIEU,RESTAURANT (0-30) SEATS MODERATE RISK,1631,IN N OUT DAILY MARKET,ACTIVE,PR0168775,['Grocery'],False,34.0883942,-118.1724548,$,5.0,3,5GwijFZqhHSKo4hlZgOHWw
48,DADLT8XVN,08/18/2017 12:00:00 AM,EVO KITCHEN,93,A,1,ROUTINE INSPECTION,EE0000838,7950 W SUNSET BLVD STE 104,LOS ANGELES,FA0022433,CA,90046,OW0018637,KCM CAPITAL LLC,RESTAURANT (31-60) SEATS HIGH RISK,1635,EVO KITCHEN,ACTIVE,PR0039131,"['Gluten-Free', 'Pizza', 'Vegan']",False,34.097541809082,-118.363555908203,$$,4.0,476,8JaphWKDSJLYYNe11KaRIw
49,DAQHHL6VZ,08/18/2017 12:00:00 AM,SPRINKLES CUPCAKES,96,A,1,ROUTINE INSPECTION,EE0000951,422 N LA CIENEGA BLVD,LOS ANGELES,FA0033955,CA,90048,OW0033828,SPRINKLES CALIFORNIA LLC,RESTAURANT (0-30) SEATS MODERATE RISK,1631,SPRINKLES CUPCAKES,ACTIVE,PR0006568,['Bakeries'],False,34.078800201416,-118.376182556152,$$$,2.5,3,mfDlB_jbjAiffADqilPIwA
50,DAILLBP8F,08/18/2017 12:00:00 AM,PIZZA MANIA,90,A,1,ROUTINE INSPECTION,EE0001025,7008 S SAN PEDRO ST,LOS ANGELES,FA0160026,CA,90003,OW0125013,EDUARDO SILLVERIO-ALEJANDRO,RESTAURANT (0-30) SEATS MODERATE RISK,1631,PIZZA MANIA,ACTIVE,PR0148109,['Pizza'],False,33.9758529663086,-118.26927947998,$,3.5,48,eUSAIHvAjHawTvXZ9r_MTQ
51,DAFDIYITZ,08/18/2017 12:00:00 AM,JIM'S BURGERS #10,90,A,1,ROUTINE INSPECTION,EE0000740,1901 E 1ST ST,LOS ANGELES,FA0030445,CA,90033,OW0012562,G&N LLC,RESTAURANT (31-60) SEATS HIGH RISK,1635,JIM'S BURGERS #10,ACTIVE,PR0029866,['Burgers'],False,34.0466957092285,-118.216987609863,$,3.0,95,DWAkxw-0HJV7R-HIsftzzg
52,DAT0IKYLZ,08/18/2017 12:00:00 AM,MCDONALD'S,98,A,1,ROUTINE INSPECTION,EE0000798,2215 W MARTIN LUTHER KING BLVD,LOS ANGELES,FA0066640,CA,90008,OW0008349,CLEAR VSION INC,RESTAURANT (31-60) SEATS MODERATE RISK,1634,MC DONALDS,INACTIVE,PR0012034,"['Burgers', 'Fast Food', 'Coffee & Tea']",False,34.0110727300264,-118.317903131247,$,2.0,27,7jWcpU51bs7NVsRHk-oM_w
53,DAPNVIMCV,08/18/2017 12:00:00 AM,LITTLE CAESARS #5943,92,A,1,ROUTINE INSPECTION,EE0000729,1754 W SLAUSON AVE,LOS ANGELES,FA0036495,CA,90058,OW0021931,"LITTLE CAESAR, INC",RESTAURANT (0-30) SEATS MODERATE RISK,1631,LITTLE CAESARS #5943,ACTIVE,PR0018072,"['Pizza', 'Fast Food']",False,33.98884,-118.30847,$,1.5,11,vt_wOTBB1VSLbcV0cIVRvQ
54,DA5TGZWUT,08/18/2017 12:00:00 AM,DOMINO'S PIZZA #8341,95,A,1,ROUTINE INSPECTION,EE0000740,4746 E CESAR E CHAVEZ AVE,LOS ANGELES,FA0019506,CA,90022,OW0031266,"SALABI, MALMOOND",RESTAURANT (0-30) SEATS MODERATE RISK,1631,DOMINO'S PIZZA #8341,ACTIVE,PR0023806,"['Pizza', 'Chicken Wings', 'Sandwiches']",False,34.0403480529785,-118.163238525391,$$,2.0,37,UcGYb0Hpa-oqAxGBfl-OcQ
55,DA000LME7,08/18/2017 12:00:00 AM,WINGSTOP,87,B,1,ROUTINE INSPECTION,EE0000729,1754 W SLAUSON AVE STE #A,LOS ANGELES,FA0055364,CA,90047,OW0014813,HAPPY WINGS FACTORY INC.,RESTAURANT (0-30) SEATS MODERATE RISK,1631,WINGSTOP,ACTIVE,PR0017854,['Chicken Wings'],False,33.98884,-118.30847,$$,1.5,85,rSra0XuLGCIF303-E5ro_w
56,DA5P4E9XG,08/18/2017 12:00:00 AM,PRONTO PIZZA,98,A,1,ROUTINE INSPECTION,EE0000740,4770 E CESAR E CHAVEZ AVE STE #D,LOS ANGELES,FA0044707,CA,90022,OW0022525,LUNA PIZZA CO. INC.,RESTAURANT (0-30) SEATS MODERATE RISK,1631,PRONTO PIZZA,ACTIVE,PR0016453,"['Pizza', 'Italian']",False,34.04034,-118.16239,$,3.5,46,mseVAifHvFBNNbIn-ucsJA
57,DACLSUUNJ,08/18/2017 12:00:00 AM,HILL STREET PIZZA,100,A,1,ROUTINE INSPECTION,EE0000721,448 S HILL ST,LOS ANGELES,FA0028430,CA,90013,OW0008183,"CITRUS, LLC",RESTAURANT (0-30) SEATS MODERATE RISK,1631,HILL STREET PIZZA,ACTIVE,PR0018514,"['Pizza', 'Salad', 'Beer Bar']",False,34.048906577922,-118.25162550741,$$,4.0,73,aXR0qSnMP8CghK5ICf3NIA
58,DACLSUUNJ,08/18/2017 12:00:00 AM,HILL STREET PIZZA,100,A,1,ROUTINE INSPECTION,EE0000721,448 S HILL ST,LOS ANGELES,FA0028430,CA,90013,OW0008183,"CITRUS, LLC",RESTAURANT (0-30) SEATS MODERATE RISK,1631,HILL STREET PIZZA,ACTIVE,PR0018514,"['Pizza', 'Salad', 'Beer Bar']",False,34.048906577922,-118.25162550741,$$,4.0,73,aXR0qSnMP8CghK5ICf3NIA
59,DA51XAQYX,08/02/2017 12:00:00 AM,HILL STREET PIZZA,92,A,1,ROUTINE INSPECTION,EE0000721,448 S HILL ST,LOS ANGELES,FA0028430,CA,90013,OW0008183,"CITRUS, LLC",RESTAURANT (0-30) SEATS MODERATE RISK,1631,HILL STREET PIZZA,ACTIVE,PR0018514,"['Pizza', 'Salad', 'Beer Bar']",False,34.048906577922,-118.25162550741,$$,4.0,73,aXR0qSnMP8CghK5ICf3NIA
60,DA51XAQYX,08/02/2017 12:00:00 AM,HILL STREET PIZZA,92,A,1,ROUTINE INSPECTION,EE0000721,448 S HILL ST,LOS ANGELES,FA0028430,CA,90013,OW0008183,"CITRUS, LLC",RESTAURANT (0-30) SEATS MODERATE RISK,1631,HILL STREET PIZZA,ACTIVE,PR0018514,"['Pizza', 'Salad', 'Beer Bar']",False,34.048906577922,-118.25162550741,$$,4.0,73,aXR0qSnMP8CghK5ICf3NIA
61,DACGAN8YF,08/18/2017 12:00:00 AM,KFC,90,A,1,ROUTINE INSPECTION,EE0001025,5720 S VERMONT AVE,LOS ANGELES,FA0032108,CA,90037,OW0014004,GREAT AMERICAN CHICKEN CORP,RESTAURANT (0-30) SEATS MODERATE RISK,1631,KFC,ACTIVE,PR0026116,"['Chicken Wings', 'Fast Food', 'Chicken Shop']",False,33.9896,-118.292,$,2.0,15,mJbdkpqzyZyAfTt6__siqg
62,DA0CPKVYS,08/18/2017 12:00:00 AM,LIVE BASIL PIZZA-SMASH BURGER-TOM'S URBAN,70,C,1,ROUTINE INSPECTION,EE0000122,1011 S FIGUEROA ST B101 -B201,LOS ANGELES,FA0144551,CA,90015,OW0107361,URBAN 24 LA LLC,RESTAURANT (61-150) SEATS HIGH RISK,1638,TOM'S URBAN,ACTIVE,PR0130649,"['American (New)', 'Sports Bars', 'Gastropubs']",False,34.0443026525531,-118.264682792683,$$,3.0,1893,Gv84tyU3vBvlHuHRVr8xmQ
63,DAMYSTDEG,08/18/2017 12:00:00 AM,BOARDWALK 11,95,A,1,ROUTINE INSPECTION,EE0000015,10433 NATIONAL BLVD,LOS ANGELES,FA0010261,CA,90034,OW0004903,BOARDWALK 11,RESTAURANT (61-150) SEATS HIGH RISK,1638,BOARDWALK 11,ACTIVE,PR0011781,"['Karaoke', 'American (New)', 'Gastropubs']",False,34.02908,-118.41166,$$,4.0,338,QeitU_aZKObsps3RBDmfUQ
64,DAGETYCEG,08/18/2017 12:00:00 AM,HAPPY'S PIZZA,90,A,1,ROUTINE INSPECTION,EE0000006,4371 CRENSHAW BLVD STE A,LOS ANGELES,FA0171314,CA,90008-4945,OW0178404,"CRENSHAW HOLDINGS, LLC",RESTAURANT (0-30) SEATS HIGH RISK,1632,HAPPY'S PIZZA,ACTIVE,PR0161371,"['Pizza', 'Barbeque', 'Chicken Wings']",True,34.00372,-118.33256,$,3.0,118,MWpMsGgT6_8LYbnROF2SBQ
65,DAXKQN0HO,08/18/2017 12:00:00 AM,PIZZA HUT #26205,98,A,1,ROUTINE INSPECTION,EE0000740,5130 HUNTINGTON DR S,LOS ANGELES,FA0044241,CA,90032,OW0033717,SOUTHERN CALIFORNIA PIZZA CO LLC,RESTAURANT (0-30) SEATS MODERATE RISK,1631,PIZZA HUT #26205,ACTIVE,PR0045726,"['Pizza', 'Italian', 'Chicken Wings']",False,34.0888783742815,-118.171034430758,$,2.0,28,KcRigWhz_BZ3Qe4rp9DtKw
66,DAZHJ5UZG,08/18/2017 12:00:00 AM,DELICIOUS SOUTHERN CUISINE,90,A,1,ROUTINE INSPECTION,EE0000006,4371 CRENSHAW BLVD STE D,LOS ANGELES,FA0060764,CA,90008,OW0037678,"VIDAL CORTES SANDRE, ET AL",RESTAURANT (0-30) SEATS HIGH RISK,1632,DELICIOUS SOUTHERN CUISINE,ACTIVE,PR0020269,"['Cajun/Creole', 'Soul Food', 'Southern']",False,34.00372,-118.33256,$$,4.0,136,-5q4bbrlZfMzmmpK61evUA
67,DANWMKFJO,08/18/2017 12:00:00 AM,GUESS CAFE,100,A,1,ROUTINE INSPECTION,EE0000660,1901 E 15TH ST,LOS ANGELES,FA0142714,CA,90021-2848,OW0105348,"GUCKENHEIMER SERVICES, LLC.",RESTAURANT (151 + ) SEATS HIGH RISK,1641,GUESS CAFE,ACTIVE,PR0128989,"[""Women's Clothing"", ""Men's Clothing"", 'Accessories']",False,34.0231405780756,-118.236759129608,$$,3.0,30,IherBQBvz4jH9sBaeQM3XA
68,DA8CT0OER,08/18/2017 12:00:00 AM,HAMASAKU,92,A,1,ROUTINE INSPECTION,EE0000684,11043 SANTA MONICA BLVD,LOS ANGELES,FA0063156,CA,90025,OW0008302,CKE RESTAURANT VENTURES LLC,RESTAURANT (31-60) SEATS HIGH RISK,1635,HAMASAKU,ACTIVE,PR0010982,"['Japanese', 'Sushi Bars']",False,34.048303,-118.443351,$$$,4.0,420,py2dW-WLfw8RfT4lkYX6pA
69,DAZ3HUJI6,08/18/2017 12:00:00 AM,HARIKAWA,90,A,1,ROUTINE INSPECTION,EE0000338,10914 PICO BLVD,LOS ANGELES,FA0143607,CA,90064,OW0081977,HARIKAWA TETSUYA,RESTAURANT (61-150) SEATS HIGH RISK,1638,HARIKAWA,ACTIVE,PR0129530,"['Japanese', 'Sushi Bars']",True,34.039233,-118.429681,$$,3.5,321,xaHPuZhAj13_s6ULqKZ0rA
70,DAFXRV351,08/18/2017 12:00:00 AM,DADDY DAVE & BIG MAMAS,88,B,1,ROUTINE INSPECTION,EE0000006,4287 S CRENSHAW BLVD,LOS ANGELES,FA0060579,CA,90008,OW0038919,"WILLIAMS, DAVID",RESTAURANT (0-30) SEATS HIGH RISK,1632,DADDY DAVE & BIG MAMAS,ACTIVE,PR0042588,['American (Traditional)'],True,34.0056190490723,-118.334342956543,$,4.0,24,ckCXADqakhvss1Ejn6FUhQ
71,DAF1MUZY4,08/18/2017 12:00:00 AM,LUCKY STAR DONUTS,93,A,1,ROUTINE INSPECTION,EE0001049,5030 E WHITTIER BLVD,LOS ANGELES,FA0066069,CA,90022,OW0011136,"ENG, VANNY",RESTAURANT (0-30) SEATS MODERATE RISK,1631,LUCKY STAR DONUTS,ACTIVE,PR0033095,['Donuts'],False,34.0210469,-118.1609367,blank,4.5,2,bRXA_60zIQ9eNDNoUkWjMw
72,DA0PDMZFY,08/18/2017 12:00:00 AM,BURGER KING #4107,96,A,1,ROUTINE INSPECTION,EE0000798,1662 MARTIN LUTHER KING JR BLVD W,LOS ANGELES,FA0159575,CA,90062,OW0124584,HAKIMIANPOUR SANTA MONICA LLC,RESTAURANT (31-60) SEATS MODERATE RISK,1634,BURGER KING #4107,ACTIVE,PR0147638,"['Burgers', 'Fast Food']",False,34.01065,-118.30855,$,2.5,14,W2vTEyfuTrmzZ2E46LcJPg
73,DAKJAPF1Y,08/18/2017 12:00:00 AM,PERFECT DONUTS,95,A,1,ROUTINE INSPECTION,EE0001006,1930 W 3RD ST,LOS ANGELES,FA0165979,CA,90057,OW0129201,STEPHANIE LAM,RESTAURANT (0-30) SEATS MODERATE RISK,1631,PERFECT DONUTS,ACTIVE,PR0156179,['Donuts'],False,34.062088,-118.2710201,$,3.5,10,V2BkkpO0EyyZ8L4-W2Bnog
74,DA0923756,08/18/2017 12:00:00 AM,DOMINO'S PIZZA,95,A,1,ROUTINE INSPECTION,EE0001006,270 S RAMPART BLVD,LOS ANGELES,FA0019157,CA,90057,OW0034702,T&J PIZZA INC,RESTAURANT (0-30) SEATS MODERATE RISK,1631,DOMINO'S PIZZA,ACTIVE,PR0046635,"['Pizza', 'Chicken Wings', 'Sandwiches']",False,34.0664248,-118.2785741,$,2.5,84,eL507jLmQo8bbU-Yk520jg
75,DAEB9M0C4,08/17/2017 12:00:00 AM,PAPA CRISTOS GREEK GRILL,99,A,1,ROUTINE INSPECTION,EE0000884,2769 W PICO BLVD,LOS ANGELES,FA0027755,CA,90006,OW0007936,C AND K IMPORTING CO INC,RESTAURANT (61-150) SEATS HIGH RISK,1638,PAPA CRISTOS GREEK GRILL,ACTIVE,PR0001629,"['Greek', 'Mediterranean']",False,34.0474029033579,-118.299641746033,$$,4.5,1727,H9ZlIqEp930ZRniH6VRp8w
76,DAHNXSPNJ,08/17/2017 12:00:00 AM,BAJA FRESH,90,A,1,ROUTINE INSPECTION,EE0000468,8495 W 3RD ST,LOS ANGELES,FA0250160,CA,90048,OW0240683,CWT GROUP LLC,RESTAURANT (31-60) SEATS HIGH RISK,1635,BAJA FRESH,ACTIVE,PR0199009,"['Mexican', 'Tex-Mex', 'Fast Food']",False,34.0734847,-118.3763016,$,2.5,67,Fe_FRSfc-DEvHdPVybmjiQ
77,DABH2O0XO,08/17/2017 12:00:00 AM,FIN,91,A,1,ROUTINE INSPECTION,EE0000953,12223 W WASHINGTON BLVD,LOS ANGELES,FA0066878,CA,90066,OW0100059,"FIN CREATIVE CONCEPTS, LLC",RESTAURANT (61-150) SEATS HIGH RISK,1638,FIN,ACTIVE,PR0033136,"['Asian Fusion', 'Japanese', 'Sushi Bars']",False,33.9973431927465,-118.426339142025,$$,4.0,602,rex7s1Of3bSkbZBeO8cqGA
78,DAS1QTEY6,08/17/2017 12:00:00 AM,KING TACO #115,100,A,1,ROUTINE INSPECTION,EE0000366,4300 E OLYMPIC BLVD,LOS ANGELES,FA0033366,CA,90023,OW0019629,"KING TACO RESTAURANT, INC.",RESTAURANT (31-60) SEATS HIGH RISK,1635,KING TACO #15,ACTIVE,PR0046731,['Mexican'],False,34.01864,-118.17971,$,3.0,262,vA53t_N31ykuMlF7Wcjmpw
79,DAZVF30DF,08/17/2017 12:00:00 AM,SANTA MONICA CHEVRON,92,A,1,ROUTINE INSPECTION,EE0000684,11261 SANTA MONICA BLVD,LOS ANGELES,FA0047797,CA,90025,OW0031719,SANTA MONICA 405 INC.,RESTAURANT (0-30) SEATS HIGH RISK,1632,SANTA MONICA CHEVRON,ACTIVE,PR0035997,['Gas Stations'],False,34.0469818115234,-118.447792053223,blank,2.5,15,E4-watOlqVYt0ZHBpieoOQ
80,DACN2SR6R,08/17/2017 12:00:00 AM,CALIFORNIA ROLL & SUSHI FISH,83,B,1,ROUTINE INSPECTION,EE0000828,125 N LARCHMONT BLVD,LOS ANGELES,FA0012539,CA,90004,OW0034684,T & C SOLUTION,RESTAURANT (31-60) SEATS HIGH RISK,1635,CALIFORNIA ROLL & SUSHI FISH,ACTIVE,PR0011533,"['Sushi Bars', 'Japanese']",True,34.0738129771087,-118.32380666316,$$,3.0,135,1hnTeQXm_K4z_88zQD6WYQ
81,DACN2SR6R,08/17/2017 12:00:00 AM,CALIFORNIA ROLL & SUSHI FISH,83,B,1,ROUTINE INSPECTION,EE0000828,125 N LARCHMONT BLVD,LOS ANGELES,FA0012539,CA,90004,OW0034684,T & C SOLUTION,RESTAURANT (31-60) SEATS HIGH RISK,1635,CALIFORNIA ROLL & SUSHI FISH,ACTIVE,PR0011533,"['Sushi Bars', 'Japanese']",True,34.0738129771087,-118.32380666316,$$,3.0,135,1hnTeQXm_K4z_88zQD6WYQ
82,DACZK4WJW,07/11/2017 12:00:00 AM,CALIFORNIA ROLL & SUSHI FISH,90,A,401,OWNER INITIATED ROUTINE INSPECT.,EE0000828,125 N LARCHMONT BLVD,LOS ANGELES,FA0012539,CA,90004,OW0034684,T & C SOLUTION,RESTAURANT (31-60) SEATS HIGH RISK,1635,CALIFORNIA ROLL & SUSHI FISH,ACTIVE,PR0011533,"['Sushi Bars', 'Japanese']",True,34.0738129771087,-118.32380666316,$$,3.0,135,1hnTeQXm_K4z_88zQD6WYQ
83,DACZK4WJW,07/11/2017 12:00:00 AM,CALIFORNIA ROLL & SUSHI FISH,90,A,401,OWNER INITIATED ROUTINE INSPECT.,EE0000828,125 N LARCHMONT BLVD,LOS ANGELES,FA0012539,CA,90004,OW0034684,T & C SOLUTION,RESTAURANT (31-60) SEATS HIGH RISK,1635,CALIFORNIA ROLL & SUSHI FISH,ACTIVE,PR0011533,"['Sushi Bars', 'Japanese']",True,34.0738129771087,-118.32380666316,$$,3.0,135,1hnTeQXm_K4z_88zQD6WYQ
84,DAN0W6PEL,08/17/2017 12:00:00 AM,POLKA RESTAURANT,96,A,1,ROUTINE INSPECTION,EE0000923,4112 VERDUGO RD,LOS ANGELES,FA0028889,CA,90065,OW0005402,BUDNY MICHAL ADAM,RESTAURANT (31-60) SEATS HIGH RISK,1635,POLKA RESTAURANT,ACTIVE,PR0044198,['Polish'],False,34.125401,-118.231779,$$,4.0,716,C9rLh3Mp-agjne7JWv8KLA
85,DA0DIKIOG,08/17/2017 12:00:00 AM,MOUN OF TUNIS,96,A,1,ROUTINE INSPECTION,EE0000835,7445 SUNSET BLVD # B,LOS ANGELES,FA0041578,CA,90046-3403,OW0022909,"MAHMOUD,ABDELLATIF B",RESTAURANT (31-60) SEATS HIGH RISK,1635,MOUN OF TUNIS,ACTIVE,PR0019819,"['Moroccan', 'African', 'Vegetarian']",False,34.098451,-118.352524,$$,4.0,222,u8U8Zc1Se_gY30zNeOTSqg
86,DADKKZYOM,08/17/2017 12:00:00 AM,MI TIERRA BAKERY EL NERO,90,A,1,ROUTINE INSPECTION,EE0000799,1991 E FLORENCE AVE,LOS ANGELES,FA0159065,CA,90001,OW0124100,PEDRO ZACARIAS ALCARAZ,RESTAURANT (0-30) SEATS MODERATE RISK,1631,MI TIERRA BAKERY EL NERO,ACTIVE,PR0147128,['Bakeries'],False,33.9747751504183,-118.235350102186,$,5.0,1,rExy55n5GLAuk_drZrItkQ
87,DA0HGOBFX,08/17/2017 12:00:00 AM,DINO'S BURGERS,92,A,1,ROUTINE INSPECTION,EE0000366,3200 E OLYMPIC BLVD,LOS ANGELES,FA0031772,CA,90023,OW0100363,DINO'S BURGERS L.A. LLC,RESTAURANT (31-60) SEATS HIGH RISK,1635,JIM'S SUPER BURGERS,ACTIVE,PR0041086,['Burgers'],True,34.0196495056152,-118.210144042969,blank,4.5,6,EZDT5N8YUG4M6pIbTTpDjQ
88,DAGLUCXT5,08/17/2017 12:00:00 AM,PUERTO NUEVO COFFEE,92,A,1,ROUTINE INSPECTION,EE0000006,4445 W SLAUSON AVE,LOS ANGELES,FA0069018,CA,90043,OW0013638,"GONZALES, JOSE",RESTAURANT (31-60) SEATS HIGH RISK,1635,PUERTO NUEVO COFFEE,ACTIVE,PR0023462,"['Mexican', 'Tex-Mex', 'Seafood']",False,33.9890149,-118.3533883,$,4.0,133,xFfesHtX-QXc1-ZF4px-mw
89,DAMQGAXD3,08/17/2017 12:00:00 AM,THAI MOON RESTAURANT,91,A,1,ROUTINE INSPECTION,EE0000924,2180 WESTWOOD BLVD STE 1G,LOS ANGELES,FA0180517,CA,90025,OW0106677,A3P LLC,RESTAURANT (0-30) SEATS HIGH RISK,1632,THAI MOON RESTAURANT,ACTIVE,PR0174288,['Thai'],False,34.0445036089938,-118.431746634537,$,3.5,241,2NT5lvZNSWGWzVzpy7VclQ
90,DAJXUOYR3,08/17/2017 12:00:00 AM,TERIYAKI HOUSE,86,B,1,ROUTINE INSPECTION,EE0000006,4455 W SLAUSON AVE,LOS ANGELES,FA0166804,CA,90043,OW0129898,EUGENE PARK,RESTAURANT (0-30) SEATS HIGH RISK,1632,TERIYAKI HOUSE,ACTIVE,PR0157132,['Japanese'],False,33.9891395785573,-118.353775573552,$,4.0,249,p_Qx3ISMiE9OrCm6iV0aYQ
91,DA56B5A7C,08/17/2017 12:00:00 AM,ORLEANS ANS YORKS FINE DELI,90,A,1,ROUTINE INSPECTION,EE0000006,4454 W SLAUSON AVE,LOS ANGELES,FA0027196,CA,90043,OW0027020,OTAMAN SAMI,RESTAURANT (0-30) SEATS HIGH RISK,1632,ORLEANS ANS YORKS FINE DELI,ACTIVE,PR0006109,"['Cajun/Creole', 'American (Traditional)', 'Sandwiches']",False,33.9888387126375,-118.353521374948,$$,4.5,620,IbSO3urVCNUsis_yKNYvUQ
92,DAVYUQAAI,08/17/2017 12:00:00 AM,TACOS TU MADRE,91,A,1,ROUTINE INSPECTION,EE0000924,1945 1/2 WESTWOOD BLVD,LOS ANGELES,FA0177155,CA,90025,OW0183114,JOSHUA POURGOL,RESTAURANT (0-30) SEATS HIGH RISK,1632,TACOS TU MADRE,ACTIVE,PR0170119,"['Tapas/Small Plates', 'Mexican', 'Breakfast & Brunch']",False,34.0473835,-118.434935,$,4.0,871,lhjyWpMMbysXxS-6ZJ9QNg
93,DAUSA6YLE,08/17/2017 12:00:00 AM,KARAOKE BLEU,96,A,1,ROUTINE INSPECTION,EE0000684,2064 SAWTELLE BLVD,LOS ANGELES,FA0032688,CA,90025,OW0017448,JATT ENTERPRISES INC,RESTAURANT (31-60) SEATS LOW RISK,1633,KARAOKE BLEU,ACTIVE,PR0022400,"['Karaoke', 'Dive Bars']",False,34.0398218,-118.4425511,$$,3.5,152,yDGVKaVVGJfZbUsbC0xZzg
94,DA02EWDGI,08/17/2017 12:00:00 AM,PANINI KABOB GRILL,94,A,1,ROUTINE INSPECTION,EE0000375,10250 SANTA MONICA BLVD # 1590,LOS ANGELES,FA0249958,CA,90067,OW0244148,SANTA CENTURY INC.,RESTAURANT (61-150) SEATS HIGH RISK,1638,PANINI KABOB GRILL,ACTIVE,PR0198780,"['Mediterranean', 'Breakfast & Brunch', 'Persian/Iranian']",False,34.0599599,-118.41982,$$,4.0,97,XHO6aQEhrfhkJ2kP93PT-Q
95,DAEF0NMRT,08/17/2017 12:00:00 AM,PRONTO CAFFE & TEA,90,A,1,ROUTINE INSPECTION,EE0000531,3530 WILSHIRE BLVD STE 102,LOS ANGELES,FA0045243,CA,90010,OW0029074,PRONTO CAFFE CORPORATION,RESTAURANT (31-60) SEATS HIGH RISK,1635,PRONTO CAFFE & TEA,ACTIVE,PR0026984,['Coffee & Tea'],False,34.0610313415527,-118.301200866699,$,3.5,13,QEmkoDGaQPxcnrMHP7ohXg
96,DAGIFNCQ6,08/17/2017 12:00:00 AM,CARL'S,97,A,1,ROUTINE INSPECTION,EE0000531,3500 WILSHIRE BLVD,LOS ANGELES,FA0166874,CA,90010,OW0129962,ATJ&B LLC,RESTAURANT (61-150) SEATS MODERATE RISK,1637,CARL'S JR.,ACTIVE,PR0157207,['Fast Food'],False,34.06139,-118.3007,$,3.0,21,Tunb2rINdgVZtLRyV-rNnw
97,DAGIFNCQ6,08/17/2017 12:00:00 AM,CARL'S,97,A,1,ROUTINE INSPECTION,EE0000531,3500 WILSHIRE BLVD,LOS ANGELES,FA0166874,CA,90010,OW0129962,ATJ&B LLC,RESTAURANT (61-150) SEATS MODERATE RISK,1637,CARL'S JR.,ACTIVE,PR0157207,"['Asian Fusion', 'Fast Food']",True,34.06139,-118.3007,$,3.0,36,hkae-9lm2W8gvg2KQ7SZwA
98,DAGWFOPL0,08/17/2017 12:00:00 AM,FLAME BROILER,92,A,1,ROUTINE INSPECTION,EE0000531,3500 WILSHIRE BLVD,LOS ANGELES,FA0023131,CA,90010,OW0007231,CHAUDARY MOHAMMAD,RESTAURANT (31-60) SEATS HIGH RISK,1635,FLAME BROILER,ACTIVE,PR0037722,['Fast Food'],False,34.06139,-118.3007,$,3.0,21,Tunb2rINdgVZtLRyV-rNnw
99,DAGWFOPL0,08/17/2017 12:00:00 AM,FLAME BROILER,92,A,1,ROUTINE INSPECTION,EE0000531,3500 WILSHIRE BLVD,LOS ANGELES,FA0023131,CA,90010,OW0007231,CHAUDARY MOHAMMAD,RESTAURANT (31-60) SEATS HIGH RISK,1635,FLAME BROILER,ACTIVE,PR0037722,"['Asian Fusion', 'Fast Food']",True,34.06139,-118.3007,$,3.0,36,hkae-9lm2W8gvg2KQ7SZwA
100,DASIH7AJW,08/17/2017 12:00:00 AM,PANCHO'S BAKERY,92,A,1,ROUTINE INSPECTION,EE0000799,1759 E FLORENCE AVE,LOS ANGELES,FA0043058,CA,90001,OW0006662,"CEDILLO, GUADALUPE",RESTAURANT (0-30) SEATS MODERATE RISK,1631,PANCHO'S BAKERY,ACTIVE,PR0047812,"['Bakeries', 'Mexican']",False,33.9748649,-118.2415925,blank,4.0,9,CiEwfKyLNpXeddH8vNt1iw
101,DASLXEK2A,08/17/2017 12:00:00 AM,TOCA MADERA,90,A,1,ROUTINE INSPECTION,EE0000468,8450 W 3RD ST,LOS ANGELES,FA0174510,CA,90048,OW0181162,KNIGHT LIFE COLLECTIVE LLC,RESTAURANT (61-150) SEATS HIGH RISK,1638,TOCA MADERA,ACTIVE,PR0167521,"['Cocktail Bars', 'Mexican']",False,34.07294,-118.37494,$$$,4.0,1419,LNb-ElJwKIXS6Lx5xdRB1Q
102,DA0KDLEI0,08/17/2017 12:00:00 AM,THAI DISHES,90,A,1,ROUTINE INSPECTION,EE0000733,6234 W MANCHESTER AVE,LOS ANGELES,FA0051576,CA,90045,OW0010094,"DINING TRADITION, INC.",RESTAURANT (61-150) SEATS HIGH RISK,1638,THAI DISHES,ACTIVE,PR0004815,['Thai'],False,33.9596551,-118.3946474,$$,3.5,380,V5MqD-ib3QDCVP4NkxVhyA
103,DAQOVINVP,08/17/2017 12:00:00 AM,THAI TASTE,90,A,1,ROUTINE INSPECTION,EE0000953,12824 VENICE BLVD,LOS ANGELES,FA0036862,CA,90066,OW0007819,CHOITIKASUPASERANEE SADWARAT,RESTAURANT (0-30) SEATS HIGH RISK,1632,THAI TASTE,ACTIVE,PR0022823,['Thai'],False,33.9997366,-118.4409411,$$,3.5,416,WmWrPTjSeG3sENgQTN1jyg
104,DAQOVINVP,08/17/2017 12:00:00 AM,THAI TASTE,90,A,1,ROUTINE INSPECTION,EE0000953,12824 VENICE BLVD,LOS ANGELES,FA0036862,CA,90066,OW0007819,CHOITIKASUPASERANEE SADWARAT,RESTAURANT (0-30) SEATS HIGH RISK,1632,THAI TASTE,ACTIVE,PR0022823,['Thai'],False,33.9997366,-118.4409411,$$,3.5,416,WmWrPTjSeG3sENgQTN1jyg
105,DA1XN230M,06/27/2017 12:00:00 AM,THAI TASTE,91,A,1,ROUTINE INSPECTION,EE0000953,12824 VENICE BLVD,LOS ANGELES,FA0036862,CA,90066,OW0007819,CHOITIKASUPASERANEE SADWARAT,RESTAURANT (0-30) SEATS HIGH RISK,1632,THAI TASTE,ACTIVE,PR0022823,['Thai'],False,33.9997366,-118.4409411,$$,3.5,416,WmWrPTjSeG3sENgQTN1jyg
106,DA1XN230M,06/27/2017 12:00:00 AM,THAI TASTE,91,A,1,ROUTINE INSPECTION,EE0000953,12824 VENICE BLVD,LOS ANGELES,FA0036862,CA,90066,OW0007819,CHOITIKASUPASERANEE SADWARAT,RESTAURANT (0-30) SEATS HIGH RISK,1632,THAI TASTE,ACTIVE,PR0022823,['Thai'],False,33.9997366,-118.4409411,$$,3.5,416,WmWrPTjSeG3sENgQTN1jyg
107,DAVAOBI3H,08/17/2017 12:00:00 AM,SABY'S CAFE & JUICE BAR,73,C,1,ROUTINE INSPECTION,EE0000953,12900 W VENICE BLVD,LOS ANGELES,FA0031448,CA,90066,OW0031149,SABINA AQUILAR,RESTAURANT (0-30) SEATS HIGH RISK,1632,SABY'S CAFE & JUICE BAR,ACTIVE,PR0043403,"['Juice Bars & Smoothies', 'Coffee & Tea', 'Mexican']",False,33.99945,-118.44118,$,3.5,57,byuHwFqKPc7tPL67u7-eTQ
108,DALP9RE9C,08/17/2017 12:00:00 AM,THE PHOENIX,90,A,1,ROUTINE INSPECTION,EE0000468,8480 W 3RD ST,LOS ANGELES,FA0223035,CA,90048,OW0227787,"THE PHOENIX REST. & BAR, LLC",RESTAURANT (61-150) SEATS HIGH RISK,1638,THE PHOENIX,ACTIVE,PR0178077,"['Lounges', 'Whiskey Bars', 'Venues & Event Spaces']",False,34.07304,-118.37585,$$,4.0,164,vD_vPxFQ8Bf4OO32bVsPxg
109,DARMNCUYM,08/17/2017 12:00:00 AM,EL BARON,92,A,1,ROUTINE INSPECTION,EE0000884,2757 W PICO BLVD,LOS ANGELES,FA0012133,CA,90006,OW0027306,"PALACIOS, MARTA ALICIA ALAS",RESTAURANT (0-30) SEATS HIGH RISK,1632,EL BARON,ACTIVE,PR0009926,['Salvadoran'],False,34.0473749,-118.2991912,$,4.0,21,hhmA-AB9bS6abMDY-jR6MQ
110,DA8MKNPLR,08/17/2017 12:00:00 AM,THE TERIYAKI HOUSE PICO,96,A,1,ROUTINE INSPECTION,EE0000015,10610 W PICO BLVD,LOS ANGELES,FA0037692,CA,90064,OW0026645,OHYAMA KAZUHISA,RESTAURANT (0-30) SEATS HIGH RISK,1632,THE TERIYAKI HOUSE PICO,ACTIVE,PR0012924,['Japanese'],False,34.04302,-118.42214,blank,2.5,3,cEYGjMLNy5wbEB-43nyLBw
111,DAMQQFQTD,08/17/2017 12:00:00 AM,FOOD 4 LESS #309,91,A,1,ROUTINE INSPECTION,EE0000476,9635 LAUREL CANYON BLVD,LOS ANGELES,FA0013850,CA,90054,OW0012108,"FOOD 4 LESS, INC.",RESTAURANT (0-30) SEATS HIGH RISK,1632,FOOD 4 LESS DELI # 309,ACTIVE,PR0021863,['Grocery'],False,34.243804,-118.417423,$,3.0,21,A-Vdy_MuIEvHeun3N1JGzA
112,DAFXKTUHA,08/17/2017 12:00:00 AM,SUBWAY #35573,96,A,1,ROUTINE INSPECTION,EE0000176,3560 S LA CIENEGA BLVD # #103,LOS ANGELES,FA0034870,CA,90016,OW0025879,NEW MILLENNIUM PVT LTD,RESTAURANT (0-30) SEATS MODERATE RISK,1631,SUBWAY #35573,ACTIVE,PR0033869,"['Sandwiches', 'Fast Food']",False,34.0227652933823,-118.371905342328,$,3.5,13,6h38RAMA8Fe2NkwiGq_ZMA
113,DAP7I28TG,08/17/2017 12:00:00 AM,EVA'S LECHON,97,A,1,ROUTINE INSPECTION,EE0000869,4252 W 3RD ST,LOS ANGELES,FA0013216,CA,90020,OW0038132,"VITANGCOL, ET AL MAURICIA",RESTAURANT (0-30) SEATS HIGH RISK,1632,EVA'S LECHON,ACTIVE,PR0012748,['Filipino'],False,34.0689428150654,-118.306891322136,$$,4.0,58,pm5GtrZ7FbRSp0tO-Hdkog
114,DA0OOXP3E,08/17/2017 12:00:00 AM,TOGOS EATERY,94,A,1,ROUTINE INSPECTION,EE0000531,3462 WILSHIRE BLVD,LOS ANGELES,FA0038004,CA,90010,OW0031773,"SANTOS, FERNANDO",RESTAURANT (31-60) SEATS MODERATE RISK,1634,TOGOS EATERY,ACTIVE,PR0032022,"['Fast Food', 'Sandwiches', 'Delis']",False,34.0616151,-118.2994699,$,3.5,34,Vkm438r0mFYUvfvKgqDPRQ
115,DANE2BKLA,08/17/2017 12:00:00 AM,JACK IN THE BOX #3161,84,B,1,ROUTINE INSPECTION,EE0000338,11010 W PICO BLVD,LOS ANGELES,FA0030884,CA,90064,OW0034120,"SU, LEE L.",RESTAURANT (61-150) SEATS MODERATE RISK,1637,JACK IN THE BOX #3161,ACTIVE,PR0042073,"['Burgers', 'Fast Food']",False,34.0379600524902,-118.432357788086,$,2.5,32,L4EYjRLGFWwwJB4sFaxEGQ
116,DAZVMYNGB,08/17/2017 12:00:00 AM,JUAN POLLO 47,93,A,1,ROUTINE INSPECTION,EE0000950,6600 E OLYMPIC BLVD # 105,LOS ANGELES,FA0245890,CA,90022-4759,OW0240861,GRACIE GARCIA,RESTAURANT (0-30) SEATS HIGH RISK,1632,JUAN POLLO 47,ACTIVE,PR0194273,['Mexican'],False,34.011318,-118.1306455,$,4.0,27,1nX9T_yiKcAv6W4cX_80Tg
117,DAUSCP09M,08/17/2017 12:00:00 AM,JAMBA JUICE #644,91,A,1,ROUTINE INSPECTION,EE0000836,5305 CENTINELA AVE,LOS ANGELES,FA0202993,CA,90045,OW0208261,BREA JUICE COMPANY LLC,RESTAURANT (0-30) SEATS MODERATE RISK,1631,JAMBA JUICE #644,ACTIVE,PR0175304,['Juice Bars & Smoothies'],False,33.9775926541909,-118.372131362174,$,3.0,105,hMwWgbmPzRiTg09DxW1-Kw
118,DAJJVIAVU,08/17/2017 12:00:00 AM,KUSINA FILIPINA,93,A,1,ROUTINE INSPECTION,EE0000923,4157 EAGLE ROCK BLVD STE 1&2,LOS ANGELES,FA0072994,CA,90065,OW0100495,MIRANDA JUANITO,RESTAURANT (31-60) SEATS HIGH RISK,1635,KUSINA FILIPINA,ACTIVE,PR0035475,['Filipino'],False,34.1221039362348,-118.225827331283,$$,4.0,210,_JKZ9v9w_UjGfI9Ukb5IYg
119,DAOUFNEA2,08/17/2017 12:00:00 AM,LA INDIA BONTITA MEXICAN FOOD,90,A,1,ROUTINE INSPECTION,EE0001049,4729 E OLYMPIC BLVD,LOS ANGELES,FA0248586,CA,90022-3715,OW0242958,CELIDA B HERNANDEZ-AVELICA,RESTAURANT (31-60) SEATS HIGH RISK,1635,LA INDIA BONTITA MEXICAN FOOD,ACTIVE,PR0197256,['Mexican'],True,34.0181184298481,-118.166914551068,blank,3.0,10,VCxkY0r4XBWjgHiogFhIeA
120,DA0AHCFPE,08/17/2017 12:00:00 AM,CONRER BAKERY CAFE #185,96,A,1,ROUTINE INSPECTION,EE0000721,801 S FIGUEROA ST STE 150,LOS ANGELES,FA0009877,CA,90015,OW0006589,CBC RESTAURANT CORP,RESTAURANT (61-150) SEATS HIGH RISK,1638,CONRER BAKERY CAFE #185,ACTIVE,PR0023251,"['Sandwiches', 'Breakfast & Brunch']",False,34.0478324890137,-118.261894226074,$$,3.5,176,jgkM8Wm8yFuKP2Ira3qxJA
121,DAOHLT1WF,08/17/2017 12:00:00 AM,ADMIRALS CLUB,98,A,1,ROUTINE INSPECTION,EE0000122,400 WORLD WAY,LOS ANGELES,FA0004930,CA,90045,OW0125020,"AMERICAN AIRLINES, INC.",RESTAURANT (31-60) SEATS MODERATE RISK,1634,ADMIRALS CLUB BUSINESS KITCHEN,ACTIVE,PR0024054,['Airport Lounges'],False,33.941501,-118.40702,$$,3.5,97,0mWP3UxMn1VJJKzIclGXSQ
122,DAOHLT1WF,08/17/2017 12:00:00 AM,ADMIRALS CLUB,98,A,1,ROUTINE INSPECTION,EE0000122,400 WORLD WAY,LOS ANGELES,FA0004930,CA,90045,OW0125020,"AMERICAN AIRLINES, INC.",RESTAURANT (31-60) SEATS MODERATE RISK,1634,ADMIRALS CLUB BUSINESS KITCHEN,ACTIVE,PR0024054,['Airport Lounges'],False,33.941501,-118.40702,$$,3.5,97,0mWP3UxMn1VJJKzIclGXSQ
123,DAOHLT1WF,08/17/2017 12:00:00 AM,ADMIRALS CLUB,98,A,1,ROUTINE INSPECTION,EE0000122,400 WORLD WAY,LOS ANGELES,FA0004930,CA,90045,OW0125020,"AMERICAN AIRLINES, INC.",RESTAURANT (31-60) SEATS MODERATE RISK,1634,ADMIRALS CLUB BUSINESS KITCHEN,ACTIVE,PR0024054,['Airport Terminals'],False,33.9433129,-118.4082624,blank,2.5,143,DLuVl3G0zj0POVTBFe7lwg
124,DAOHLT1WF,08/17/2017 12:00:00 AM,ADMIRALS CLUB,98,A,1,ROUTINE INSPECTION,EE0000122,400 WORLD WAY,LOS ANGELES,FA0004930,CA,90045,OW0125020,"AMERICAN AIRLINES, INC.",RESTAURANT (31-60) SEATS MODERATE RISK,1634,ADMIRALS CLUB BUSINESS KITCHEN,ACTIVE,PR0024054,"['Sandwiches', 'Bars']",False,33.9406375662965,-118.406827523279,$$,2.0,113,HVph9K78qaFPiG0zveOZjA
125,DAOHLT1WF,08/17/2017 12:00:00 AM,ADMIRALS CLUB,98,A,1,ROUTINE INSPECTION,EE0000122,400 WORLD WAY,LOS ANGELES,FA0004930,CA,90045,OW0125020,"AMERICAN AIRLINES, INC.",RESTAURANT (31-60) SEATS MODERATE RISK,1634,ADMIRALS CLUB BUSINESS KITCHEN,ACTIVE,PR0024054,['Airport Terminals'],False,33.9433129,-118.4082624,blank,2.5,143,DLuVl3G0zj0POVTBFe7lwg
126,DAOHLT1WF,08/17/2017 12:00:00 AM,ADMIRALS CLUB,98,A,1,ROUTINE INSPECTION,EE0000122,400 WORLD WAY,LOS ANGELES,FA0004930,CA,90045,OW0125020,"AMERICAN AIRLINES, INC.",RESTAURANT (31-60) SEATS MODERATE RISK,1634,ADMIRALS CLUB BUSINESS KITCHEN,ACTIVE,PR0024054,['Bakeries'],False,33.9406501759236,-118.406568970036,$$,1.5,90,XIeaYhjQub6Z98o3FzsbkQ
127,DA5YUCP8R,08/17/2017 12:00:00 AM,ADMIRALS CLUB,91,A,1,ROUTINE INSPECTION,EE0000122,400 WORLD WAY,LOS ANGELES,FA0004930,CA,90045,OW0125020,"AMERICAN AIRLINES, INC.",RESTAURANT (31-60) SEATS MODERATE RISK,1634,ADMIRALS CLUB BAR,ACTIVE,PR0043580,['Airport Lounges'],False,33.941501,-118.40702,$$,3.5,97,0mWP3UxMn1VJJKzIclGXSQ
128,DA5YUCP8R,08/17/2017 12:00:00 AM,ADMIRALS CLUB,91,A,1,ROUTINE INSPECTION,EE0000122,400 WORLD WAY,LOS ANGELES,FA0004930,CA,90045,OW0125020,"AMERICAN AIRLINES, INC.",RESTAURANT (31-60) SEATS MODERATE RISK,1634,ADMIRALS CLUB BAR,ACTIVE,PR0043580,['Airport Lounges'],False,33.941501,-118.40702,$$,3.5,97,0mWP3UxMn1VJJKzIclGXSQ
129,DA5YUCP8R,08/17/2017 12:00:00 AM,ADMIRALS CLUB,91,A,1,ROUTINE INSPECTION,EE0000122,400 WORLD WAY,LOS ANGELES,FA0004930,CA,90045,OW0125020,"AMERICAN AIRLINES, INC.",RESTAURANT (31-60) SEATS MODERATE RISK,1634,ADMIRALS CLUB BAR,ACTIVE,PR0043580,['Airport Terminals'],False,33.9433129,-118.4082624,blank,2.5,143,DLuVl3G0zj0POVTBFe7lwg
130,DA5YUCP8R,08/17/2017 12:00:00 AM,ADMIRALS CLUB,91,A,1,ROUTINE INSPECTION,EE0000122,400 WORLD WAY,LOS ANGELES,FA0004930,CA,90045,OW0125020,"AMERICAN AIRLINES, INC.",RESTAURANT (31-60) SEATS MODERATE RISK,1634,ADMIRALS CLUB BAR,ACTIVE,PR0043580,"['Sandwiches', 'Bars']",False,33.9406375662965,-118.406827523279,$$,2.0,113,HVph9K78qaFPiG0zveOZjA
131,DA5YUCP8R,08/17/2017 12:00:00 AM,ADMIRALS CLUB,91,A,1,ROUTINE INSPECTION,EE0000122,400 WORLD WAY,LOS ANGELES,FA0004930,CA,90045,OW0125020,"AMERICAN AIRLINES, INC.",RESTAURANT (31-60) SEATS MODERATE RISK,1634,ADMIRALS CLUB BAR,ACTIVE,PR0043580,['Airport Terminals'],False,33.9433129,-118.4082624,blank,2.5,143,DLuVl3G0zj0POVTBFe7lwg
132,DA5YUCP8R,08/17/2017 12:00:00 AM,ADMIRALS CLUB,91,A,1,ROUTINE INSPECTION,EE0000122,400 WORLD WAY,LOS ANGELES,FA0004930,CA,90045,OW0125020,"AMERICAN AIRLINES, INC.",RESTAURANT (31-60) SEATS MODERATE RISK,1634,ADMIRALS CLUB BAR,ACTIVE,PR0043580,['Bakeries'],False,33.9406501759236,-118.406568970036,$$,1.5,90,XIeaYhjQub6Z98o3FzsbkQ
133,DATBB8MED,07/26/2017 12:00:00 AM,TERMINAL 4 FOOD COURT KITCHEN,80,B,401,OWNER INITIATED ROUTINE INSPECT.,EE0000122,400 WORLD WAY,LOS ANGELES,FA0160818,CA,90045,OW0016382,HOST INTERNATIONAL INC,RESTAURANT (61-150) SEATS HIGH RISK,1638,TERMINAL 4 FOOD COURT KITCHEN,ACTIVE,PR0148906,['Airport Lounges'],False,33.941501,-118.40702,$$,3.5,97,0mWP3UxMn1VJJKzIclGXSQ
134,DATBB8MED,07/26/2017 12:00:00 AM,TERMINAL 4 FOOD COURT KITCHEN,80,B,401,OWNER INITIATED ROUTINE INSPECT.,EE0000122,400 WORLD WAY,LOS ANGELES,FA0160818,CA,90045,OW0016382,HOST INTERNATIONAL INC,RESTAURANT (61-150) SEATS HIGH RISK,1638,TERMINAL 4 FOOD COURT KITCHEN,ACTIVE,PR0148906,['Airport Lounges'],False,33.941501,-118.40702,$$,3.5,97,0mWP3UxMn1VJJKzIclGXSQ
135,DATBB8MED,07/26/2017 12:00:00 AM,TERMINAL 4 FOOD COURT KITCHEN,80,B,401,OWNER INITIATED ROUTINE INSPECT.,EE0000122,400 WORLD WAY,LOS ANGELES,FA0160818,CA,90045,OW0016382,HOST INTERNATIONAL INC,RESTAURANT (61-150) SEATS HIGH RISK,1638,TERMINAL 4 FOOD COURT KITCHEN,ACTIVE,PR0148906,['Airport Terminals'],False,33.9433129,-118.4082624,blank,2.5,143,DLuVl3G0zj0POVTBFe7lwg
136,DATBB8MED,07/26/2017 12:00:00 AM,TERMINAL 4 FOOD COURT KITCHEN,80,B,401,OWNER INITIATED ROUTINE INSPECT.,EE0000122,400 WORLD WAY,LOS ANGELES,FA0160818,CA,90045,OW0016382,HOST INTERNATIONAL INC,RESTAURANT (61-150) SEATS HIGH RISK,1638,TERMINAL 4 FOOD COURT KITCHEN,ACTIVE,PR0148906,"['Sandwiches', 'Bars']",False,33.9406375662965,-118.406827523279,$$,2.0,113,HVph9K78qaFPiG0zveOZjA
137,DATBB8MED,07/26/2017 12:00:00 AM,TERMINAL 4 FOOD COURT KITCHEN,80,B,401,OWNER INITIATED ROUTINE INSPECT.,EE0000122,400 WORLD WAY,LOS ANGELES,FA0160818,CA,90045,OW0016382,HOST INTERNATIONAL INC,RESTAURANT (61-150) SEATS HIGH RISK,1638,TERMINAL 4 FOOD COURT KITCHEN,ACTIVE,PR0148906,['Airport Terminals'],False,33.9433129,-118.4082624,blank,2.5,143,DLuVl3G0zj0POVTBFe7lwg
138,DATBB8MED,07/26/2017 12:00:00 AM,TERMINAL 4 FOOD COURT KITCHEN,80,B,401,OWNER INITIATED ROUTINE INSPECT.,EE0000122,400 WORLD WAY,LOS ANGELES,FA0160818,CA,90045,OW0016382,HOST INTERNATIONAL INC,RESTAURANT (61-150) SEATS HIGH RISK,1638,TERMINAL 4 FOOD COURT KITCHEN,ACTIVE,PR0148906,['Bakeries'],False,33.9406501759236,-118.406568970036,$$,1.5,90,XIeaYhjQub6Z98o3FzsbkQ
139,DAGNKQGNY,07/24/2017 12:00:00 AM,CALIFORNIA GOURMET KITCHEN,94,A,401,OWNER INITIATED ROUTINE INSPECT.,EE0000122,400 WORLD WAY,LOS ANGELES,FA0142768,CA,90045-5888,OW0105940,CALIFORNIA GOURMET KITCH INC,RESTAURANT (0-30) SEATS HIGH RISK,1632,CALIFORNIA GOURMET KITCHEN,ACTIVE,PR0127100,['Airport Lounges'],False,33.941501,-118.40702,$$,3.5,97,0mWP3UxMn1VJJKzIclGXSQ
140,DAGNKQGNY,07/24/2017 12:00:00 AM,CALIFORNIA GOURMET KITCHEN,94,A,401,OWNER INITIATED ROUTINE INSPECT.,EE0000122,400 WORLD WAY,LOS ANGELES,FA0142768,CA,90045-5888,OW0105940,CALIFORNIA GOURMET KITCH INC,RESTAURANT (0-30) SEATS HIGH RISK,1632,CALIFORNIA GOURMET KITCHEN,ACTIVE,PR0127100,['Airport Lounges'],False,33.941501,-118.40702,$$,3.5,97,0mWP3UxMn1VJJKzIclGXSQ
141,DAGNKQGNY,07/24/2017 12:00:00 AM,CALIFORNIA GOURMET KITCHEN,94,A,401,OWNER INITIATED ROUTINE INSPECT.,EE0000122,400 WORLD WAY,LOS ANGELES,FA0142768,CA,90045-5888,OW0105940,CALIFORNIA GOURMET KITCH INC,RESTAURANT (0-30) SEATS HIGH RISK,1632,CALIFORNIA GOURMET KITCHEN,ACTIVE,PR0127100,['Airport Terminals'],False,33.9433129,-118.4082624,blank,2.5,143,DLuVl3G0zj0POVTBFe7lwg
142,DAGNKQGNY,07/24/2017 12:00:00 AM,CALIFORNIA GOURMET KITCHEN,94,A,401,OWNER INITIATED ROUTINE INSPECT.,EE0000122,400 WORLD WAY,LOS ANGELES,FA0142768,CA,90045-5888,OW0105940,CALIFORNIA GOURMET KITCH INC,RESTAURANT (0-30) SEATS HIGH RISK,1632,CALIFORNIA GOURMET KITCHEN,ACTIVE,PR0127100,"['Sandwiches', 'Bars']",False,33.9406375662965,-118.406827523279,$$,2.0,113,HVph9K78qaFPiG0zveOZjA
143,DAGNKQGNY,07/24/2017 12:00:00 AM,CALIFORNIA GOURMET KITCHEN,94,A,401,OWNER INITIATED ROUTINE INSPECT.,EE0000122,400 WORLD WAY,LOS ANGELES,FA0142768,CA,90045-5888,OW0105940,CALIFORNIA GOURMET KITCH INC,RESTAURANT (0-30) SEATS HIGH RISK,1632,CALIFORNIA GOURMET KITCHEN,ACTIVE,PR0127100,['Airport Terminals'],False,33.9433129,-118.4082624,blank,2.5,143,DLuVl3G0zj0POVTBFe7lwg
144,DAGNKQGNY,07/24/2017 12:00:00 AM,CALIFORNIA GOURMET KITCHEN,94,A,401,OWNER INITIATED ROUTINE INSPECT.,EE0000122,400 WORLD WAY,LOS ANGELES,FA0142768,CA,90045-5888,OW0105940,CALIFORNIA GOURMET KITCH INC,RESTAURANT (0-30) SEATS HIGH RISK,1632,CALIFORNIA GOURMET KITCHEN,ACTIVE,PR0127100,['Bakeries'],False,33.9406501759236,-118.406568970036,$$,1.5,90,XIeaYhjQub6Z98o3FzsbkQ
145,DAH78ZMHB,07/18/2017 12:00:00 AM,COLE'S BAR,93,A,1,ROUTINE INSPECTION,EE0000122,400 WORLD WAY,LOS ANGELES,FA0160817,CA,90045,OW0016382,HOST INTERNATIONAL INC,RESTAURANT (0-30) SEATS LOW RISK,1630,COLE'S BAR,ACTIVE,PR0148905,['Airport Lounges'],False,33.941501,-118.40702,$$,3.5,97,0mWP3UxMn1VJJKzIclGXSQ
146,DAH78ZMHB,07/18/2017 12:00:00 AM,COLE'S BAR,93,A,1,ROUTINE INSPECTION,EE0000122,400 WORLD WAY,LOS ANGELES,FA0160817,CA,90045,OW0016382,HOST INTERNATIONAL INC,RESTAURANT (0-30) SEATS LOW RISK,1630,COLE'S BAR,ACTIVE,PR0148905,['Airport Lounges'],False,33.941501,-118.40702,$$,3.5,97,0mWP3UxMn1VJJKzIclGXSQ
147,DAH78ZMHB,07/18/2017 12:00:00 AM,COLE'S BAR,93,A,1,ROUTINE INSPECTION,EE0000122,400 WORLD WAY,LOS ANGELES,FA0160817,CA,90045,OW0016382,HOST INTERNATIONAL INC,RESTAURANT (0-30) SEATS LOW RISK,1630,COLE'S BAR,ACTIVE,PR0148905,['Airport Terminals'],False,33.9433129,-118.4082624,blank,2.5,143,DLuVl3G0zj0POVTBFe7lwg
148,DAH78ZMHB,07/18/2017 12:00:00 AM,COLE'S BAR,93,A,1,ROUTINE INSPECTION,EE0000122,400 WORLD WAY,LOS ANGELES,FA0160817,CA,90045,OW0016382,HOST INTERNATIONAL INC,RESTAURANT (0-30) SEATS LOW RISK,1630,COLE'S BAR,ACTIVE,PR0148905,"['Sandwiches', 'Bars']",False,33.9406375662965,-118.406827523279,$$,2.0,113,HVph9K78qaFPiG0zveOZjA
149,DAH78ZMHB,07/18/2017 12:00:00 AM,COLE'S BAR,93,A,1,ROUTINE INSPECTION,EE0000122,400 WORLD WAY,LOS ANGELES,FA0160817,CA,90045,OW0016382,HOST INTERNATIONAL INC,RESTAURANT (0-30) SEATS LOW RISK,1630,COLE'S BAR,ACTIVE,PR0148905,['Airport Terminals'],False,33.9433129,-118.4082624,blank,2.5,143,DLuVl3G0zj0POVTBFe7lwg
150,DAH78ZMHB,07/18/2017 12:00:00 AM,COLE'S BAR,93,A,1,ROUTINE INSPECTION,EE0000122,400 WORLD WAY,LOS ANGELES,FA0160817,CA,90045,OW0016382,HOST INTERNATIONAL INC,RESTAURANT (0-30) SEATS LOW RISK,1630,COLE'S BAR,ACTIVE,PR0148905,['Bakeries'],False,33.9406501759236,-118.406568970036,$$,1.5,90,XIeaYhjQub6Z98o3FzsbkQ
151,DAGESOXLC,07/18/2017 12:00:00 AM,TERMINAL 4 FOOD COURT KITCHEN,75,C,1,ROUTINE INSPECTION,EE0000122,400 WORLD WAY,LOS ANGELES,FA0160818,CA,90045,OW0016382,HOST INTERNATIONAL INC,RESTAURANT (61-150) SEATS HIGH RISK,1638,TERMINAL 4 FOOD COURT KITCHEN,ACTIVE,PR0148906,['Airport Lounges'],False,33.941501,-118.40702,$$,3.5,97,0mWP3UxMn1VJJKzIclGXSQ
152,DAGESOXLC,07/18/2017 12:00:00 AM,TERMINAL 4 FOOD COURT KITCHEN,75,C,1,ROUTINE INSPECTION,EE0000122,400 WORLD WAY,LOS ANGELES,FA0160818,CA,90045,OW0016382,HOST INTERNATIONAL INC,RESTAURANT (61-150) SEATS HIGH RISK,1638,TERMINAL 4 FOOD COURT KITCHEN,ACTIVE,PR0148906,['Airport Lounges'],False,33.941501,-118.40702,$$,3.5,97,0mWP3UxMn1VJJKzIclGXSQ
153,DAGESOXLC,07/18/2017 12:00:00 AM,TERMINAL 4 FOOD COURT KITCHEN,75,C,1,ROUTINE INSPECTION,EE0000122,400 WORLD WAY,LOS ANGELES,FA0160818,CA,90045,OW0016382,HOST INTERNATIONAL INC,RESTAURANT (61-150) SEATS HIGH RISK,1638,TERMINAL 4 FOOD COURT KITCHEN,ACTIVE,PR0148906,['Airport Terminals'],False,33.9433129,-118.4082624,blank,2.5,143,DLuVl3G0zj0POVTBFe7lwg
154,DAGESOXLC,07/18/2017 12:00:00 AM,TERMINAL 4 FOOD COURT KITCHEN,75,C,1,ROUTINE INSPECTION,EE0000122,400 WORLD WAY,LOS ANGELES,FA0160818,CA,90045,OW0016382,HOST INTERNATIONAL INC,RESTAURANT (61-150) SEATS HIGH RISK,1638,TERMINAL 4 FOOD COURT KITCHEN,ACTIVE,PR0148906,"['Sandwiches', 'Bars']",False,33.9406375662965,-118.406827523279,$$,2.0,113,HVph9K78qaFPiG0zveOZjA
155,DAGESOXLC,07/18/2017 12:00:00 AM,TERMINAL 4 FOOD COURT KITCHEN,75,C,1,ROUTINE INSPECTION,EE0000122,400 WORLD WAY,LOS ANGELES,FA0160818,CA,90045,OW0016382,HOST INTERNATIONAL INC,RESTAURANT (61-150) SEATS HIGH RISK,1638,TERMINAL 4 FOOD COURT KITCHEN,ACTIVE,PR0148906,['Airport Terminals'],False,33.9433129,-118.4082624,blank,2.5,143,DLuVl3G0zj0POVTBFe7lwg
156,DAGESOXLC,07/18/2017 12:00:00 AM,TERMINAL 4 FOOD COURT KITCHEN,75,C,1,ROUTINE INSPECTION,EE0000122,400 WORLD WAY,LOS ANGELES,FA0160818,CA,90045,OW0016382,HOST INTERNATIONAL INC,RESTAURANT (61-150) SEATS HIGH RISK,1638,TERMINAL 4 FOOD COURT KITCHEN,ACTIVE,PR0148906,['Bakeries'],False,33.9406501759236,-118.406568970036,$$,1.5,90,XIeaYhjQub6Z98o3FzsbkQ
157,DARIG0LIG,07/18/2017 12:00:00 AM,LA PROVENCE CAFE,90,A,1,ROUTINE INSPECTION,EE0000122,400 WORLD WAY,LOS ANGELES,FA0160812,CA,90045,OW0016382,HOST INTERNATIONAL INC,RESTAURANT (0-30) SEATS MODERATE RISK,1631,LA PROVENCE CAFE,ACTIVE,PR0148900,['Airport Lounges'],False,33.941501,-118.40702,$$,3.5,97,0mWP3UxMn1VJJKzIclGXSQ
158,DARIG0LIG,07/18/2017 12:00:00 AM,LA PROVENCE CAFE,90,A,1,ROUTINE INSPECTION,EE0000122,400 WORLD WAY,LOS ANGELES,FA0160812,CA,90045,OW0016382,HOST INTERNATIONAL INC,RESTAURANT (0-30) SEATS MODERATE RISK,1631,LA PROVENCE CAFE,ACTIVE,PR0148900,['Airport Lounges'],False,33.941501,-118.40702,$$,3.5,97,0mWP3UxMn1VJJKzIclGXSQ
159,DARIG0LIG,07/18/2017 12:00:00 AM,LA PROVENCE CAFE,90,A,1,ROUTINE INSPECTION,EE0000122,400 WORLD WAY,LOS ANGELES,FA0160812,CA,90045,OW0016382,HOST INTERNATIONAL INC,RESTAURANT (0-30) SEATS MODERATE RISK,1631,LA PROVENCE CAFE,ACTIVE,PR0148900,['Airport Terminals'],False,33.9433129,-118.4082624,blank,2.5,143,DLuVl3G0zj0POVTBFe7lwg
160,DARIG0LIG,07/18/2017 12:00:00 AM,LA PROVENCE CAFE,90,A,1,ROUTINE INSPECTION,EE0000122,400 WORLD WAY,LOS ANGELES,FA0160812,CA,90045,OW0016382,HOST INTERNATIONAL INC,RESTAURANT (0-30) SEATS MODERATE RISK,1631,LA PROVENCE CAFE,ACTIVE,PR0148900,"['Sandwiches', 'Bars']",False,33.9406375662965,-118.406827523279,$$,2.0,113,HVph9K78qaFPiG0zveOZjA
161,DARIG0LIG,07/18/2017 12:00:00 AM,LA PROVENCE CAFE,90,A,1,ROUTINE INSPECTION,EE0000122,400 WORLD WAY,LOS ANGELES,FA0160812,CA,90045,OW0016382,HOST INTERNATIONAL INC,RESTAURANT (0-30) SEATS MODERATE RISK,1631,LA PROVENCE CAFE,ACTIVE,PR0148900,['Airport Terminals'],False,33.9433129,-118.4082624,blank,2.5,143,DLuVl3G0zj0POVTBFe7lwg
162,DARIG0LIG,07/18/2017 12:00:00 AM,LA PROVENCE CAFE,90,A,1,ROUTINE INSPECTION,EE0000122,400 WORLD WAY,LOS ANGELES,FA0160812,CA,90045,OW0016382,HOST INTERNATIONAL INC,RESTAURANT (0-30) SEATS MODERATE RISK,1631,LA PROVENCE CAFE,ACTIVE,PR0148900,['Bakeries'],False,33.9406501759236,-118.406568970036,$$,1.5,90,XIeaYhjQub6Z98o3FzsbkQ
163,DAST8484X,07/18/2017 12:00:00 AM,FOOD AND BOUNTY,93,A,1,ROUTINE INSPECTION,EE0000122,400 WORLD WAY,LOS ANGELES,FA0165596,CA,90045,OW0016382,HOST INTERNATIONAL INC,RESTAURANT (0-30) SEATS HIGH RISK,1632,FOOD AND BOUNTY,ACTIVE,PR0153924,['Airport Lounges'],False,33.941501,-118.40702,$$,3.5,97,0mWP3UxMn1VJJKzIclGXSQ
164,DAST8484X,07/18/2017 12:00:00 AM,FOOD AND BOUNTY,93,A,1,ROUTINE INSPECTION,EE0000122,400 WORLD WAY,LOS ANGELES,FA0165596,CA,90045,OW0016382,HOST INTERNATIONAL INC,RESTAURANT (0-30) SEATS HIGH RISK,1632,FOOD AND BOUNTY,ACTIVE,PR0153924,['Airport Lounges'],False,33.941501,-118.40702,$$,3.5,97,0mWP3UxMn1VJJKzIclGXSQ
165,DAST8484X,07/18/2017 12:00:00 AM,FOOD AND BOUNTY,93,A,1,ROUTINE INSPECTION,EE0000122,400 WORLD WAY,LOS ANGELES,FA0165596,CA,90045,OW0016382,HOST INTERNATIONAL INC,RESTAURANT (0-30) SEATS HIGH RISK,1632,FOOD AND BOUNTY,ACTIVE,PR0153924,['Airport Terminals'],False,33.9433129,-118.4082624,blank,2.5,143,DLuVl3G0zj0POVTBFe7lwg
166,DAST8484X,07/18/2017 12:00:00 AM,FOOD AND BOUNTY,93,A,1,ROUTINE INSPECTION,EE0000122,400 WORLD WAY,LOS ANGELES,FA0165596,CA,90045,OW0016382,HOST INTERNATIONAL INC,RESTAURANT (0-30) SEATS HIGH RISK,1632,FOOD AND BOUNTY,ACTIVE,PR0153924,"['Sandwiches', 'Bars']",False,33.9406375662965,-118.406827523279,$$,2.0,113,HVph9K78qaFPiG0zveOZjA
167,DAST8484X,07/18/2017 12:00:00 AM,FOOD AND BOUNTY,93,A,1,ROUTINE INSPECTION,EE0000122,400 WORLD WAY,LOS ANGELES,FA0165596,CA,90045,OW0016382,HOST INTERNATIONAL INC,RESTAURANT (0-30) SEATS HIGH RISK,1632,FOOD AND BOUNTY,ACTIVE,PR0153924,['Airport Terminals'],False,33.9433129,-118.4082624,blank,2.5,143,DLuVl3G0zj0POVTBFe7lwg
168,DAST8484X,07/18/2017 12:00:00 AM,FOOD AND BOUNTY,93,A,1,ROUTINE INSPECTION,EE0000122,400 WORLD WAY,LOS ANGELES,FA0165596,CA,90045,OW0016382,HOST INTERNATIONAL INC,RESTAURANT (0-30) SEATS HIGH RISK,1632,FOOD AND BOUNTY,ACTIVE,PR0153924,['Bakeries'],False,33.9406501759236,-118.406568970036,$$,1.5,90,XIeaYhjQub6Z98o3FzsbkQ
169,DAZIO1CXO,07/12/2017 12:00:00 AM,CALIFORNIA GOURMET KITCHEN,84,B,1,ROUTINE INSPECTION,EE0000122,400 WORLD WAY,LOS ANGELES,FA0142768,CA,90045-5888,OW0105940,CALIFORNIA GOURMET KITCH INC,RESTAURANT (0-30) SEATS HIGH RISK,1632,CALIFORNIA GOURMET KITCHEN,ACTIVE,PR0127100,['Airport Lounges'],False,33.941501,-118.40702,$$,3.5,97,0mWP3UxMn1VJJKzIclGXSQ
170,DAZIO1CXO,07/12/2017 12:00:00 AM,CALIFORNIA GOURMET KITCHEN,84,B,1,ROUTINE INSPECTION,EE0000122,400 WORLD WAY,LOS ANGELES,FA0142768,CA,90045-5888,OW0105940,CALIFORNIA GOURMET KITCH INC,RESTAURANT (0-30) SEATS HIGH RISK,1632,CALIFORNIA GOURMET KITCHEN,ACTIVE,PR0127100,['Airport Lounges'],False,33.941501,-118.40702,$$,3.5,97,0mWP3UxMn1VJJKzIclGXSQ
171,DAZIO1CXO,07/12/2017 12:00:00 AM,CALIFORNIA GOURMET KITCHEN,84,B,1,ROUTINE INSPECTION,EE0000122,400 WORLD WAY,LOS ANGELES,FA0142768,CA,90045-5888,OW0105940,CALIFORNIA GOURMET KITCH INC,RESTAURANT (0-30) SEATS HIGH RISK,1632,CALIFORNIA GOURMET KITCHEN,ACTIVE,PR0127100,['Airport Terminals'],False,33.9433129,-118.4082624,blank,2.5,143,DLuVl3G0zj0POVTBFe7lwg
172,DAZIO1CXO,07/12/2017 12:00:00 AM,CALIFORNIA GOURMET KITCHEN,84,B,1,ROUTINE INSPECTION,EE0000122,400 WORLD WAY,LOS ANGELES,FA0142768,CA,90045-5888,OW0105940,CALIFORNIA GOURMET KITCH INC,RESTAURANT (0-30) SEATS HIGH RISK,1632,CALIFORNIA GOURMET KITCHEN,ACTIVE,PR0127100,"['Sandwiches', 'Bars']",False,33.9406375662965,-118.406827523279,$$,2.0,113,HVph9K78qaFPiG0zveOZjA
173,DAZIO1CXO,07/12/2017 12:00:00 AM,CALIFORNIA GOURMET KITCHEN,84,B,1,ROUTINE INSPECTION,EE0000122,400 WORLD WAY,LOS ANGELES,FA0142768,CA,90045-5888,OW0105940,CALIFORNIA GOURMET KITCH INC,RESTAURANT (0-30) SEATS HIGH RISK,1632,CALIFORNIA GOURMET KITCHEN,ACTIVE,PR0127100,['Airport Terminals'],False,33.9433129,-118.4082624,blank,2.5,143,DLuVl3G0zj0POVTBFe7lwg
174,DAZIO1CXO,07/12/2017 12:00:00 AM,CALIFORNIA GOURMET KITCHEN,84,B,1,ROUTINE INSPECTION,EE0000122,400 WORLD WAY,LOS ANGELES,FA0142768,CA,90045-5888,OW0105940,CALIFORNIA GOURMET KITCH INC,RESTAURANT (0-30) SEATS HIGH RISK,1632,CALIFORNIA GOURMET KITCHEN,ACTIVE,PR0127100,['Bakeries'],False,33.9406501759236,-118.406568970036,$$,1.5,90,XIeaYhjQub6Z98o3FzsbkQ
175,DAABRHIBW,08/17/2017 12:00:00 AM,PRESSED JUICERY - THE GROVE,98,A,1,ROUTINE INSPECTION,EE0000468,189 THE GROVE DR # K4,LOS ANGELES,FA0223950,CA,90036,OW0028997,PRESSED JUICERY LLC,RESTAURANT (0-30) SEATS MODERATE RISK,1631,PRESSED JUICERY - THE GROVE,ACTIVE,PR0179110,"['Juice Bars & Smoothies', 'Ice Cream & Frozen Yogurt']",False,34.07134,-118.35687,$$,4.0,86,gjMtSQP2X3F_HdHdaI2bag
176,DAQMDCVIA,08/17/2017 12:00:00 AM,TOMATO PIE PIZZA JOINT,90,A,1,ROUTINE INSPECTION,EE0000951,7751 1/2 MELROSE AVE,LOS ANGELES,FA0072707,CA,90046,OW0036155,TOMATO PIE PIZZA JOINT MELRO,RESTAURANT (0-30) SEATS HIGH RISK,1632,TOMATO PIE PIZZA JOINT,ACTIVE,PR0023826,['Pizza'],False,34.0839,-118.35864,$,4.0,445,3R1O-HFHT3iKtxWEIoPWTg
177,DAQMDCVIA,08/17/2017 12:00:00 AM,TOMATO PIE PIZZA JOINT,90,A,1,ROUTINE INSPECTION,EE0000951,7751 1/2 MELROSE AVE,LOS ANGELES,FA0072707,CA,90046,OW0036155,TOMATO PIE PIZZA JOINT MELRO,RESTAURANT (0-30) SEATS HIGH RISK,1632,TOMATO PIE PIZZA JOINT,ACTIVE,PR0023826,"['Falafel', 'Vegan', 'Kosher']",False,34.0838803743991,-118.358774911268,$$,4.5,284,ZLFWmPcu6D6UBomUTpjJRg
178,DARVR0VNL,08/17/2017 12:00:00 AM,FALA BAR,90,A,1,ROUTINE INSPECTION,EE0000951,7751 1/2 MELROSE AVE,LOS ANGELES,FA0156600,CA,90046,OW0121881,MICHAEL S. SHABTAI,RESTAURANT (0-30) SEATS HIGH RISK,1632,FALA BAR,ACTIVE,PR0144272,['Pizza'],False,34.0839,-118.35864,$,4.0,445,3R1O-HFHT3iKtxWEIoPWTg
179,DARVR0VNL,08/17/2017 12:00:00 AM,FALA BAR,90,A,1,ROUTINE INSPECTION,EE0000951,7751 1/2 MELROSE AVE,LOS ANGELES,FA0156600,CA,90046,OW0121881,MICHAEL S. SHABTAI,RESTAURANT (0-30) SEATS HIGH RISK,1632,FALA BAR,ACTIVE,PR0144272,"['Falafel', 'Vegan', 'Kosher']",False,34.0838803743991,-118.358774911268,$$,4.5,284,ZLFWmPcu6D6UBomUTpjJRg
180,DAPCPITSD,08/17/2017 12:00:00 AM,RORO'S CHICKEN,92,A,1,ROUTINE INSPECTION,EE0000822,6660 W SUNSET BLVD STE C,LOS ANGELES,FA0031076,CA,90028,OW0001601,"ABOUMALHAM, ROGER J",RESTAURANT (0-30) SEATS HIGH RISK,1632,RORO'S CHICKEN,ACTIVE,PR0042219,"['Mediterranean', 'Lebanese', 'Chicken Shop']",False,34.09756,-118.3357,$,4.0,505,b85ulrz02-Dx6SR_cAzxbw
181,DAKPYHRPB,08/17/2017 12:00:00 AM,STARBUCKS #28051,93,A,1,ROUTINE INSPECTION,EE0001048,1742 S LA CIENEGA BLVD,LOS ANGELES,FA0224029,CA,90035,OW0033938,STARBUCKS COFFEE CORPORATION,RESTAURANT (61-150) SEATS LOW RISK,1636,STARBUCKS #28051,ACTIVE,PR0179195,['Coffee & Tea'],False,34.0463525561909,-118.376130109206,$$,2.5,74,DlZUntgqUguu3xWhzN7kjA
182,DAIIYKYD3,08/17/2017 12:00:00 AM,YEE'S CHINESE FOOD,96,A,1,ROUTINE INSPECTION,EE0000006,4400 W SLAUSON AVE,LOS ANGELES,FA0055261,CA,90043,OW0039586,"YEE, BEN",RESTAURANT (31-60) SEATS HIGH RISK,1635,YEE'S CHINESE FOOD,ACTIVE,PR0040316,['Chinese'],False,33.988496,-118.3522,$,3.0,203,ypbPO0ujgOp1gr-3m6iQ7A
183,DAWK0BRRW,08/17/2017 12:00:00 AM,LA ESQUINA RESTAURANT #2,90,A,1,ROUTINE INSPECTION,EE0000923,4159 EAGLE ROCK BLVD,LOS ANGELES,FA0163715,CA,90065,OW0127271,OMAR CORTES ORTIZ,RESTAURANT (31-60) SEATS HIGH RISK,1635,LA ESQUINA RESTAURANT #2,ACTIVE,PR0151945,"['Salvadoran', 'Mexican']",False,34.12213,-118.22559,$,4.0,96,1_erH4O4st6ByfuLxE-d1Q
184,DA1ZMUA7A,08/17/2017 12:00:00 AM,GOAL,90,A,1,ROUTINE INSPECTION,EE0000468,8334 W 3RD ST,LOS ANGELES,FA0025998,CA,90048,OW0038055,VIRGIL SB123 LLC,RESTAURANT (31-60) SEATS HIGH RISK,1635,GOAL,ACTIVE,PR0022591,['Sports Bars'],False,34.072543,-118.37129,$$,3.5,205,VOFA28djXACRkmtwkYCGdQ
185,DABJD3WN6,08/17/2017 12:00:00 AM,AN'S CHAN BANG,96,A,1,ROUTINE INSPECTION,EE0000117,244 S OXFORD AVE # 5,LOS ANGELES,FA0225480,CA,90004,OW0229742,AN'S CHAN BANG,RESTAURANT (0-30) SEATS HIGH RISK,1632,AN'S CHAN BANG,ACTIVE,PR0180803,['Caterers'],False,34.0697628056638,-118.30747872591,blank,4.0,2,HVO-D0XPrNpfhVQnG30KIg
186,DA6FFDORR,08/17/2017 12:00:00 AM,COCO FRESH TEA AND JUICE,94,A,1,ROUTINE INSPECTION,EE0000955,8336 LINCOLN BLVD,LOS ANGELES,FA0245633,CA,90045-2414,OW0240643,"TCCJL , LLC",RESTAURANT (0-30) SEATS MODERATE RISK,1631,COCO FRESH TEA AND JUICE,ACTIVE,PR0194007,"['Bubble Tea', 'Juice Bars & Smoothies', 'Coffee & Tea']",False,33.9617924985405,-118.420889778937,$,3.5,73,7XVo9rvo6IsCGIT4MYPgHA
187,DAW06XX68,08/17/2017 12:00:00 AM,NEIL TOTOS LECHON MANOK,93,A,1,ROUTINE INSPECTION,EE0000923,4110 VERDUGO RD,LOS ANGELES,FA0026132,CA,90065,OW0025786,NEIL FOODS LLC,RESTAURANT (0-30) SEATS HIGH RISK,1632,NEIL TOTOS LECHON MANOK,ACTIVE,PR0028692,['Filipino'],False,34.1253700256348,-118.231422424316,$,3.5,53,aJsbqYiSLAz911PaKsexmA
188,DAZDKTWDB,08/17/2017 12:00:00 AM,CHICKEN DAY,92,A,1,ROUTINE INSPECTION,EE0000869,301 S WESTERN AVE # 107,LOS ANGELES,FA0230668,CA,90020,OW0234778,"T & G YUM-YUM CHICKEN ,INC",RESTAURANT (31-60) SEATS HIGH RISK,1635,CHICKEN DAY,ACTIVE,PR0186018,"['Chicken Wings', 'Korean']",False,34.068943,-118.309711,$$,3.5,240,9M9Wm2tuUQQAsFOHsIBrGg
189,DAYE2QOXA,08/17/2017 12:00:00 AM,SYCAMORE TAVERN,83,B,1,ROUTINE INSPECTION,EE0000835,7038 W SUNSET BLVD,LOS ANGELES,FA0063229,CA,90028,OW0035704,THE QUINTESSENTIAL GROUP LLC,RESTAURANT (151 + ) SEATS HIGH RISK,1641,SYCAMORE TAVERN,ACTIVE,PR0008102,['Gastropubs'],False,34.0976333618164,-118.342781066895,$$,3.0,67,nKl1JcppO64TgADGQZBrOw
190,DAE2I9DRK,08/17/2017 12:00:00 AM,FOOD AND BOUNTY,96,A,1,ROUTINE INSPECTION,EE0000117,1438 N GOWER  BLDG 10 ST BOX 56,LOS ANGELES,FA0159879,CA,90028,OW0124874,HELEN CAVALLO,RESTAURANT (31-60) SEATS HIGH RISK,1635,FOOD AND BOUNTY,ACTIVE,PR0147952,"['Caterers', 'Venues & Event Spaces']",False,34.0969055145979,-118.32225099206,blank,2.5,24,iyO7J2md08eW39otUctGcw
191,DADSNUIKS,08/17/2017 12:00:00 AM,THE CORNER DOOR,91,A,1,ROUTINE INSPECTION,EE0000953,12477 W WASHINGTON BLVD,LOS ANGELES,FA0051860,CA,90066,OW0010340,"DOUBLE SEVEN PARTNERS, LLC.",RESTAURANT (31-60) SEATS HIGH RISK,1635,THE CORNER DOOR,ACTIVE,PR0023446,"['American (New)', 'Bars']",False,33.9969769227672,-118.430627848769,$$,3.5,445,J10jlmkA-QM789j9BvO6bg
192,DAFJR81MM,08/17/2017 12:00:00 AM,LAUGH FACTORY,98,A,1,ROUTINE INSPECTION,EE0000822,8001 W SUNSET BLVD,LOS ANGELES,FA0034329,CA,90046,OW0023711,"MASADA, JAMIE",RESTAURANT (61-150) SEATS MODERATE RISK,1637,LAUGH FACTORY,ACTIVE,PR0045738,"['Comedy Clubs', 'Performing Arts']",False,34.09823,-118.36447,$$,3.5,660,YSNzP3uL5VSe7RDRf1q5xw
193,DAFJR81MM,08/17/2017 12:00:00 AM,LAUGH FACTORY,98,A,1,ROUTINE INSPECTION,EE0000822,8001 W SUNSET BLVD,LOS ANGELES,FA0034329,CA,90046,OW0023711,"MASADA, JAMIE",RESTAURANT (61-150) SEATS MODERATE RISK,1637,LAUGH FACTORY,ACTIVE,PR0045738,"['Comedy Clubs', 'Performing Arts']",False,34.09823,-118.36447,$$,3.5,660,YSNzP3uL5VSe7RDRf1q5xw
194,DACV90TJQ,08/17/2017 12:00:00 AM,LAUGH FACTORY,96,A,1,ROUTINE INSPECTION,EE0000822,8001 W SUNSET BLVD,LOS ANGELES,FA0034329,CA,90046,OW0023711,"MASADA, JAMIE",RESTAURANT (61-150) SEATS LOW RISK,1636,LAUGH FACTORY  - BAR,ACTIVE,PR0197973,"['Comedy Clubs', 'Performing Arts']",False,34.09823,-118.36447,$$,3.5,660,YSNzP3uL5VSe7RDRf1q5xw
195,DACV90TJQ,08/17/2017 12:00:00 AM,LAUGH FACTORY,96,A,1,ROUTINE INSPECTION,EE0000822,8001 W SUNSET BLVD,LOS ANGELES,FA0034329,CA,90046,OW0023711,"MASADA, JAMIE",RESTAURANT (61-150) SEATS LOW RISK,1636,LAUGH FACTORY  - BAR,ACTIVE,PR0197973,"['Comedy Clubs', 'Performing Arts']",False,34.09823,-118.36447,$$,3.5,660,YSNzP3uL5VSe7RDRf1q5xw
196,DAOPBYZPU,08/17/2017 12:00:00 AM,FOGO DE CHAO,92,A,1,ROUTINE INSPECTION,EE0000721,800 S FIGUEROA ST # 100,LOS ANGELES,FA0166177,CA,90017,OW0129360,FOGO DE CHAO CHURRASCARIA LOS ANGELES LLC,RESTAURANT (151 + ) SEATS HIGH RISK,1641,FOGO DE CHAO,ACTIVE,PR0156428,"['Steakhouses', 'Brazilian']",False,34.04771,-118.26113,$$$,3.5,806,euIu-4rVEKrsAMMC8A0vZQ
197,DAJJ9D13T,08/17/2017 12:00:00 AM,DEL TACO # 1193,94,A,1,ROUTINE INSPECTION,EE0000162,4903 N EAGLE ROCK BLVD,LOS ANGELES,FA0242469,CA,90041-1906,OW0009661,DEL TACO INC,RESTAURANT (0-30) SEATS MODERATE RISK,1631,DEL TACO # 1193,ACTIVE,PR0190641,['Mexican'],False,34.1352999955416,-118.215317353606,$,1.5,87,_mhi8DdnqtLG2LmJl-ZNow
198,DATBNFGNC,08/17/2017 12:00:00 AM,BAJA BUDS,99,A,1,ROUTINE INSPECTION,EE0000144,11205 NATIONAL BLVD,LOS ANGELES,FA0007973,CA,90064,OW0024319,MEXICAN VENTURES INC,RESTAURANT (31-60) SEATS HIGH RISK,1635,BAJA BUDS,ACTIVE,PR0019423,"['Mexican', 'Desserts', 'Salad']",False,34.02743,-118.42929,$,4.0,248,7XGC9lQ1-9T4QOe6DX6xZg
199,DANPJ7ONJ,08/17/2017 12:00:00 AM,LA CONVENTION CENTER,98,A,1,ROUTINE INSPECTION,EE0000633,1201 S FIGUEROA ST,LOS ANGELES,FA0156500,CA,90015,OW0121804,LEVY PREMIUM FOOD SERVICE LP,RESTAURANT (0-30) SEATS LOW RISK,1630,LA CONVENTION CENTER PANTRY 2317 - LACC / ROOM 300,ACTIVE,PR0151552,"['Venues & Event Spaces', 'Party & Event Planning']",False,34.040329,-118.269562,blank,3.5,334,wFxDli2tlPCRbPU42S-o1g
200,DANPJ7ONJ,08/17/2017 12:00:00 AM,LA CONVENTION CENTER,98,A,1,ROUTINE INSPECTION,EE0000633,1201 S FIGUEROA ST,LOS ANGELES,FA0156500,CA,90015,OW0121804,LEVY PREMIUM FOOD SERVICE LP,RESTAURANT (0-30) SEATS LOW RISK,1630,LA CONVENTION CENTER PANTRY 2317 - LACC / ROOM 300,ACTIVE,PR0151552,"['Venues & Event Spaces', 'Party & Event Planning']",False,34.040329,-118.269562,blank,3.5,334,wFxDli2tlPCRbPU42S-o1g
201,DANPJ7ONJ,08/17/2017 12:00:00 AM,LA CONVENTION CENTER,98,A,1,ROUTINE INSPECTION,EE0000633,1201 S FIGUEROA ST,LOS ANGELES,FA0156500,CA,90015,OW0121804,LEVY PREMIUM FOOD SERVICE LP,RESTAURANT (0-30) SEATS LOW RISK,1630,LA CONVENTION CENTER PANTRY 2317 - LACC / ROOM 300,ACTIVE,PR0151552,['American (New)'],False,34.0420609,-118.2675476,$$,2.0,8,qqWWkHFB5VJjrvIiJLki2w
202,DANPJ7ONJ,08/17/2017 12:00:00 AM,LA CONVENTION CENTER,98,A,1,ROUTINE INSPECTION,EE0000633,1201 S FIGUEROA ST,LOS ANGELES,FA0156500,CA,90015,OW0121804,LEVY PREMIUM FOOD SERVICE LP,RESTAURANT (0-30) SEATS LOW RISK,1630,LA CONVENTION CENTER PANTRY 2317 - LACC / ROOM 300,ACTIVE,PR0151552,"['Venues & Event Spaces', 'Party & Event Planning']",False,34.040329,-118.269562,blank,3.5,334,wFxDli2tlPCRbPU42S-o1g
203,DA0A2SLPB,08/17/2017 12:00:00 AM,LA CONVENTION CENTER,97,A,1,ROUTINE INSPECTION,EE0000633,1201 S FIGUEROA ST,LOS ANGELES,FA0156500,CA,90015,OW0121804,LEVY PREMIUM FOOD SERVICE LP,RESTAURANT (151 + ) SEATS HIGH RISK,1641,LA CONVENTION CENTER GALAXY RESTAURANT - LACC,ACTIVE,PR0143275,"['Venues & Event Spaces', 'Party & Event Planning']",False,34.040329,-118.269562,blank,3.5,334,wFxDli2tlPCRbPU42S-o1g
204,DA0A2SLPB,08/17/2017 12:00:00 AM,LA CONVENTION CENTER,97,A,1,ROUTINE INSPECTION,EE0000633,1201 S FIGUEROA ST,LOS ANGELES,FA0156500,CA,90015,OW0121804,LEVY PREMIUM FOOD SERVICE LP,RESTAURANT (151 + ) SEATS HIGH RISK,1641,LA CONVENTION CENTER GALAXY RESTAURANT - LACC,ACTIVE,PR0143275,"['Venues & Event Spaces', 'Party & Event Planning']",False,34.040329,-118.269562,blank,3.5,334,wFxDli2tlPCRbPU42S-o1g
205,DA0A2SLPB,08/17/2017 12:00:00 AM,LA CONVENTION CENTER,97,A,1,ROUTINE INSPECTION,EE0000633,1201 S FIGUEROA ST,LOS ANGELES,FA0156500,CA,90015,OW0121804,LEVY PREMIUM FOOD SERVICE LP,RESTAURANT (151 + ) SEATS HIGH RISK,1641,LA CONVENTION CENTER GALAXY RESTAURANT - LACC,ACTIVE,PR0143275,['American (New)'],False,34.0420609,-118.2675476,$$,2.0,8,qqWWkHFB5VJjrvIiJLki2w
206,DA0A2SLPB,08/17/2017 12:00:00 AM,LA CONVENTION CENTER,97,A,1,ROUTINE INSPECTION,EE0000633,1201 S FIGUEROA ST,LOS ANGELES,FA0156500,CA,90015,OW0121804,LEVY PREMIUM FOOD SERVICE LP,RESTAURANT (151 + ) SEATS HIGH RISK,1641,LA CONVENTION CENTER GALAXY RESTAURANT - LACC,ACTIVE,PR0143275,"['Venues & Event Spaces', 'Party & Event Planning']",False,34.040329,-118.269562,blank,3.5,334,wFxDli2tlPCRbPU42S-o1g
207,DAFFQ3T1J,08/17/2017 12:00:00 AM,LA CONVENTION CENTER,97,A,1,ROUTINE INSPECTION,EE0000633,1201 S FIGUEROA ST,LOS ANGELES,FA0156500,CA,90015,OW0121804,LEVY PREMIUM FOOD SERVICE LP,RESTAURANT (151 + ) SEATS HIGH RISK,1641,LA CONVENTION CENTER MAIN KITCHEN - LACC,ACTIVE,PR0143277,"['Venues & Event Spaces', 'Party & Event Planning']",False,34.040329,-118.269562,blank,3.5,334,wFxDli2tlPCRbPU42S-o1g
208,DAFFQ3T1J,08/17/2017 12:00:00 AM,LA CONVENTION CENTER,97,A,1,ROUTINE INSPECTION,EE0000633,1201 S FIGUEROA ST,LOS ANGELES,FA0156500,CA,90015,OW0121804,LEVY PREMIUM FOOD SERVICE LP,RESTAURANT (151 + ) SEATS HIGH RISK,1641,LA CONVENTION CENTER MAIN KITCHEN - LACC,ACTIVE,PR0143277,"['Venues & Event Spaces', 'Party & Event Planning']",False,34.040329,-118.269562,blank,3.5,334,wFxDli2tlPCRbPU42S-o1g
209,DAFFQ3T1J,08/17/2017 12:00:00 AM,LA CONVENTION CENTER,97,A,1,ROUTINE INSPECTION,EE0000633,1201 S FIGUEROA ST,LOS ANGELES,FA0156500,CA,90015,OW0121804,LEVY PREMIUM FOOD SERVICE LP,RESTAURANT (151 + ) SEATS HIGH RISK,1641,LA CONVENTION CENTER MAIN KITCHEN - LACC,ACTIVE,PR0143277,['American (New)'],False,34.0420609,-118.2675476,$$,2.0,8,qqWWkHFB5VJjrvIiJLki2w
210,DAFFQ3T1J,08/17/2017 12:00:00 AM,LA CONVENTION CENTER,97,A,1,ROUTINE INSPECTION,EE0000633,1201 S FIGUEROA ST,LOS ANGELES,FA0156500,CA,90015,OW0121804,LEVY PREMIUM FOOD SERVICE LP,RESTAURANT (151 + ) SEATS HIGH RISK,1641,LA CONVENTION CENTER MAIN KITCHEN - LACC,ACTIVE,PR0143277,"['Venues & Event Spaces', 'Party & Event Planning']",False,34.040329,-118.269562,blank,3.5,334,wFxDli2tlPCRbPU42S-o1g
211,DAFKOAMAC,08/17/2017 12:00:00 AM,LA CONVENTION CENTER,96,A,1,ROUTINE INSPECTION,EE0000633,1201 S FIGUEROA ST,LOS ANGELES,FA0156500,CA,90015,OW0121804,LEVY PREMIUM FOOD SERVICE LP,RESTAURANT (0-30) SEATS LOW RISK,1630,LA CONVENTION CENTER PANTRY 403 - LACC - ROOM 403,ACTIVE,PR0151556,"['Venues & Event Spaces', 'Party & Event Planning']",False,34.040329,-118.269562,blank,3.5,334,wFxDli2tlPCRbPU42S-o1g
212,DAFKOAMAC,08/17/2017 12:00:00 AM,LA CONVENTION CENTER,96,A,1,ROUTINE INSPECTION,EE0000633,1201 S FIGUEROA ST,LOS ANGELES,FA0156500,CA,90015,OW0121804,LEVY PREMIUM FOOD SERVICE LP,RESTAURANT (0-30) SEATS LOW RISK,1630,LA CONVENTION CENTER PANTRY 403 - LACC - ROOM 403,ACTIVE,PR0151556,"['Venues & Event Spaces', 'Party & Event Planning']",False,34.040329,-118.269562,blank,3.5,334,wFxDli2tlPCRbPU42S-o1g
213,DAFKOAMAC,08/17/2017 12:00:00 AM,LA CONVENTION CENTER,96,A,1,ROUTINE INSPECTION,EE0000633,1201 S FIGUEROA ST,LOS ANGELES,FA0156500,CA,90015,OW0121804,LEVY PREMIUM FOOD SERVICE LP,RESTAURANT (0-30) SEATS LOW RISK,1630,LA CONVENTION CENTER PANTRY 403 - LACC - ROOM 403,ACTIVE,PR0151556,['American (New)'],False,34.0420609,-118.2675476,$$,2.0,8,qqWWkHFB5VJjrvIiJLki2w
214,DAFKOAMAC,08/17/2017 12:00:00 AM,LA CONVENTION CENTER,96,A,1,ROUTINE INSPECTION,EE0000633,1201 S FIGUEROA ST,LOS ANGELES,FA0156500,CA,90015,OW0121804,LEVY PREMIUM FOOD SERVICE LP,RESTAURANT (0-30) SEATS LOW RISK,1630,LA CONVENTION CENTER PANTRY 403 - LACC - ROOM 403,ACTIVE,PR0151556,"['Venues & Event Spaces', 'Party & Event Planning']",False,34.040329,-118.269562,blank,3.5,334,wFxDli2tlPCRbPU42S-o1g
215,DAHJW1ONV,08/17/2017 12:00:00 AM,LA CONVENTION CENTER,96,A,1,ROUTINE INSPECTION,EE0000633,1201 S FIGUEROA ST,LOS ANGELES,FA0156500,CA,90015,OW0121804,LEVY PREMIUM FOOD SERVICE LP,RESTAURANT (151 + ) SEATS HIGH RISK,1641,LA CONVENTION CENTER COMPASS CAFE,ACTIVE,PR0151559,"['Venues & Event Spaces', 'Party & Event Planning']",False,34.040329,-118.269562,blank,3.5,334,wFxDli2tlPCRbPU42S-o1g
216,DAHJW1ONV,08/17/2017 12:00:00 AM,LA CONVENTION CENTER,96,A,1,ROUTINE INSPECTION,EE0000633,1201 S FIGUEROA ST,LOS ANGELES,FA0156500,CA,90015,OW0121804,LEVY PREMIUM FOOD SERVICE LP,RESTAURANT (151 + ) SEATS HIGH RISK,1641,LA CONVENTION CENTER COMPASS CAFE,ACTIVE,PR0151559,"['Venues & Event Spaces', 'Party & Event Planning']",False,34.040329,-118.269562,blank,3.5,334,wFxDli2tlPCRbPU42S-o1g
217,DAHJW1ONV,08/17/2017 12:00:00 AM,LA CONVENTION CENTER,96,A,1,ROUTINE INSPECTION,EE0000633,1201 S FIGUEROA ST,LOS ANGELES,FA0156500,CA,90015,OW0121804,LEVY PREMIUM FOOD SERVICE LP,RESTAURANT (151 + ) SEATS HIGH RISK,1641,LA CONVENTION CENTER COMPASS CAFE,ACTIVE,PR0151559,['American (New)'],False,34.0420609,-118.2675476,$$,2.0,8,qqWWkHFB5VJjrvIiJLki2w
218,DAHJW1ONV,08/17/2017 12:00:00 AM,LA CONVENTION CENTER,96,A,1,ROUTINE INSPECTION,EE0000633,1201 S FIGUEROA ST,LOS ANGELES,FA0156500,CA,90015,OW0121804,LEVY PREMIUM FOOD SERVICE LP,RESTAURANT (151 + ) SEATS HIGH RISK,1641,LA CONVENTION CENTER COMPASS CAFE,ACTIVE,PR0151559,"['Venues & Event Spaces', 'Party & Event Planning']",False,34.040329,-118.269562,blank,3.5,334,wFxDli2tlPCRbPU42S-o1g
219,DAQ2YZNXO,08/17/2017 12:00:00 AM,LA CONVENTION CENTER,97,A,1,ROUTINE INSPECTION,EE0000633,1201 S FIGUEROA ST,LOS ANGELES,FA0156500,CA,90015,OW0121804,LEVY PREMIUM FOOD SERVICE LP,RESTAURANT (0-30) SEATS LOW RISK,1630,LA CONVENTION CENTER PANTRY 408 - ROOM 408,ACTIVE,PR0151555,"['Venues & Event Spaces', 'Party & Event Planning']",False,34.040329,-118.269562,blank,3.5,334,wFxDli2tlPCRbPU42S-o1g
220,DAQ2YZNXO,08/17/2017 12:00:00 AM,LA CONVENTION CENTER,97,A,1,ROUTINE INSPECTION,EE0000633,1201 S FIGUEROA ST,LOS ANGELES,FA0156500,CA,90015,OW0121804,LEVY PREMIUM FOOD SERVICE LP,RESTAURANT (0-30) SEATS LOW RISK,1630,LA CONVENTION CENTER PANTRY 408 - ROOM 408,ACTIVE,PR0151555,"['Venues & Event Spaces', 'Party & Event Planning']",False,34.040329,-118.269562,blank,3.5,334,wFxDli2tlPCRbPU42S-o1g
221,DAQ2YZNXO,08/17/2017 12:00:00 AM,LA CONVENTION CENTER,97,A,1,ROUTINE INSPECTION,EE0000633,1201 S FIGUEROA ST,LOS ANGELES,FA0156500,CA,90015,OW0121804,LEVY PREMIUM FOOD SERVICE LP,RESTAURANT (0-30) SEATS LOW RISK,1630,LA CONVENTION CENTER PANTRY 408 - ROOM 408,ACTIVE,PR0151555,['American (New)'],False,34.0420609,-118.2675476,$$,2.0,8,qqWWkHFB5VJjrvIiJLki2w
222,DAQ2YZNXO,08/17/2017 12:00:00 AM,LA CONVENTION CENTER,97,A,1,ROUTINE INSPECTION,EE0000633,1201 S FIGUEROA ST,LOS ANGELES,FA0156500,CA,90015,OW0121804,LEVY PREMIUM FOOD SERVICE LP,RESTAURANT (0-30) SEATS LOW RISK,1630,LA CONVENTION CENTER PANTRY 408 - ROOM 408,ACTIVE,PR0151555,"['Venues & Event Spaces', 'Party & Event Planning']",False,34.040329,-118.269562,blank,3.5,334,wFxDli2tlPCRbPU42S-o1g
223,DAO00XU2Q,08/17/2017 12:00:00 AM,LA CONVENTION CENTER,97,A,1,ROUTINE INSPECTION,EE0000633,1201 S FIGUEROA ST,LOS ANGELES,FA0156500,CA,90015,OW0121804,LEVY PREMIUM FOOD SERVICE LP,RESTAURANT (0-30) SEATS LOW RISK,1630,LA CONVENTION CENTER PANTRY / ROOM 500,ACTIVE,PR0144286,"['Venues & Event Spaces', 'Party & Event Planning']",False,34.040329,-118.269562,blank,3.5,334,wFxDli2tlPCRbPU42S-o1g
224,DAO00XU2Q,08/17/2017 12:00:00 AM,LA CONVENTION CENTER,97,A,1,ROUTINE INSPECTION,EE0000633,1201 S FIGUEROA ST,LOS ANGELES,FA0156500,CA,90015,OW0121804,LEVY PREMIUM FOOD SERVICE LP,RESTAURANT (0-30) SEATS LOW RISK,1630,LA CONVENTION CENTER PANTRY / ROOM 500,ACTIVE,PR0144286,"['Venues & Event Spaces', 'Party & Event Planning']",False,34.040329,-118.269562,blank,3.5,334,wFxDli2tlPCRbPU42S-o1g
225,DAO00XU2Q,08/17/2017 12:00:00 AM,LA CONVENTION CENTER,97,A,1,ROUTINE INSPECTION,EE0000633,1201 S FIGUEROA ST,LOS ANGELES,FA0156500,CA,90015,OW0121804,LEVY PREMIUM FOOD SERVICE LP,RESTAURANT (0-30) SEATS LOW RISK,1630,LA CONVENTION CENTER PANTRY / ROOM 500,ACTIVE,PR0144286,['American (New)'],False,34.0420609,-118.2675476,$$,2.0,8,qqWWkHFB5VJjrvIiJLki2w
226,DAO00XU2Q,08/17/2017 12:00:00 AM,LA CONVENTION CENTER,97,A,1,ROUTINE INSPECTION,EE0000633,1201 S FIGUEROA ST,LOS ANGELES,FA0156500,CA,90015,OW0121804,LEVY PREMIUM FOOD SERVICE LP,RESTAURANT (0-30) SEATS LOW RISK,1630,LA CONVENTION CENTER PANTRY / ROOM 500,ACTIVE,PR0144286,"['Venues & Event Spaces', 'Party & Event Planning']",False,34.040329,-118.269562,blank,3.5,334,wFxDli2tlPCRbPU42S-o1g
227,DAWFCFV75,08/17/2017 12:00:00 AM,CHEECH'S PIZZA,91,A,1,ROUTINE INSPECTION,EE0000846,2116 HILLHURST AVE,LOS ANGELES,FA0014357,CA,90027,OW0011633,"FARMER JR, GEORGE",RESTAURANT (0-30) SEATS MODERATE RISK,1631,CHEECH'S PIZZA,ACTIVE,PR0026056,"['Pizza', 'Italian', 'Sandwiches']",False,34.110523,-118.2873067,$,4.0,332,lZT-ODJ8f-yQL-Gdyt2QRA
228,DAJ95PPWS,08/17/2017 12:00:00 AM,WINCHELL'S DONUT #9381,95,A,1,ROUTINE INSPECTION,EE0001006,2100 BEVERLY BLVD,LOS ANGELES,FA0055324,CA,90057,OW0040037,YUM YUM DONUT SHOPS INC.,RESTAURANT (0-30) SEATS MODERATE RISK,1631,WINCHELL'S DONUT #9381,ACTIVE,PR0035644,"['Bakeries', 'Coffee & Tea', 'Donuts']",False,34.06653,-118.27077,$,3.0,18,fhQfTJ43ayugNhtkJUWsBw
229,DA06OMNMO,08/17/2017 12:00:00 AM,LUCIFER'S PIZZA,95,A,1,ROUTINE INSPECTION,EE0000846,1958 N HILLHURST AVE,LOS ANGELES,FA0022945,CA,90027,OW0022446,LUCIFER PIZZA LLC,RESTAURANT (0-30) SEATS MODERATE RISK,1631,LUCIFER'S PIZZA,ACTIVE,PR0031831,"['Pizza', 'Gluten-Free']",False,34.10701,-118.28717,$$,3.5,548,F2IKASMNLvrNTHhkLclLHQ
230,DAYFZLPQT,08/17/2017 12:00:00 AM,CHINATOWN EXPRESS,97,A,1,ROUTINE INSPECTION,EE0001006,2137 W 6TH ST,LOS ANGELES,FA0015015,CA,90057,OW0036437,"TRAN, SEAK",RESTAURANT (0-30) SEATS HIGH RISK,1632,CHINATOWN EXPRESS,ACTIVE,PR0028716,['Restaurants'],False,34.0598722,-118.2752792,$,3.0,6,nNBJEDsyIIYM3LBoKZ6aYQ
231,DAXY8ZJV5,08/17/2017 12:00:00 AM,ANNIES BAKERY CAFE,94,A,1,ROUTINE INSPECTION,EE0001006,2117 W 6TH ST,LOS ANGELES,FA0006498,CA,90057,OW0028726,PLETAORA ENTERPRISES,RESTAURANT (0-30) SEATS HIGH RISK,1632,ANNIES BAKERY CAFE,ACTIVE,PR0042970,"['Bakeries', 'Cafes']",False,34.0597913,-118.2750983,$,4.0,33,VouY-Gm3feAgEg6lRV5yQQ
232,DAZUXCZTS,08/17/2017 12:00:00 AM,TACO BELL #3108,97,A,1,ROUTINE INSPECTION,EE0001006,103 S RAMPART BLVD,LOS ANGELES,FA0050190,CA,90057,OW0027406,PALO VERDE INC,RESTAURANT (0-30) SEATS MODERATE RISK,1631,TACO BELL #3108,ACTIVE,PR0029553,"['Fast Food', 'Mexican', 'Tex-Mex']",False,34.069516,-118.277028,$,3.5,85,7RcIQtbkW2J3-Fz1iUVI_A
233,DAUV5NCL1,08/17/2017 12:00:00 AM,ROBEKS JUICE,93,A,1,ROUTINE INSPECTION,EE0000846,1915 N HILLHURST AVE,LOS ANGELES,FA0046628,CA,90027,OW0000118,"110 SUNSHINE SMOOTHIES, INC.",RESTAURANT (0-30) SEATS MODERATE RISK,1631,ROBEKS JUICE,ACTIVE,PR0012195,['Juice Bars & Smoothies'],True,34.1057281,-118.2876816,$$,3.0,26,LR0rF1aO0EJneUDrAoDFxw
234,DAWNBDUQG,08/17/2017 12:00:00 AM,COJUTEPEQUE RESTAURANTE,90,A,1,ROUTINE INSPECTION,EE0001006,2610 W 3RD ST,LOS ANGELES,FA0009615,CA,90057,OW0028267,"PEREZ, MARIA DEL CARMEN",RESTAURANT (31-60) SEATS HIGH RISK,1635,COJUTEPEQUE RESTAURANTE,ACTIVE,PR0027322,['Salvadoran'],False,34.065803527832,-118.278701782227,$,3.5,59,us1nFY4lrj4VWA7Gyh3svA
235,DAINW9AHC,08/17/2017 12:00:00 AM,MAYAN RESTAURANT,90,A,1,ROUTINE INSPECTION,EE0001006,1811 W 6TH ST,LOS ANGELES,FA0066605,CA,90057,OW0023832,"MAYAN, INC.",RESTAURANT (0-30) SEATS HIGH RISK,1632,MAYAN RESTAURANT,ACTIVE,PR0012799,['Mexican'],True,34.0581926995793,-118.271592445672,blank,5.0,2,1Z4TKAH2hXYJhM1TkrJ4lA
236,DACHRD25J,08/17/2017 12:00:00 AM,KING TERIYAKI BURGER,95,A,1,ROUTINE INSPECTION,EE0001006,1825 W 6TH ST,LOS ANGELES,FA0032338,CA,90057,OW0030085,"RHEE, KYUNG SUK",RESTAURANT (0-30) SEATS HIGH RISK,1632,KING TERIYAKI BURGER,INACTIVE,PR0018262,['Burgers'],False,34.05852,-118.27176,blank,4.5,9,vgEwGZEgEuP975L1SW0DLA
237,DAPKZXV2S,08/16/2017 12:00:00 AM,SNOW STATION,96,A,1,ROUTINE INSPECTION,EE0000162,2114 COLORADO BLVD,LOS ANGELES,FA0158886,CA,90041,OW0123933,RHEA ORTIZ LUIZ,RESTAURANT (0-30) SEATS LOW RISK,1630,SNOW STATION,ACTIVE,PR0146967,"['Desserts', 'Shaved Ice', 'Ice Cream & Frozen Yogurt']",True,34.1389642604449,-118.212572788361,$,4.0,229,WoBxP92rbGwnu4wr82sijQ
238,DAXU0YN5R,08/16/2017 12:00:00 AM,DEL TACO #1105,91,A,1,ROUTINE INSPECTION,EE0000904,4376 W SUNSET BLVD,LOS ANGELES,FA0018397,CA,90029,OW0009661,DEL TACO INC,RESTAURANT (31-60) SEATS MODERATE RISK,1634,DEL TACO #1105,ACTIVE,PR0002331,"['Mexican', 'Fast Food']",False,34.0962895,-118.2849009,$,2.5,144,xlFgotnLp82nyrzIMqCSUw
239,DA80VL3OT,08/16/2017 12:00:00 AM,DODGER STADIUM,96,A,1,ROUTINE INSPECTION,EE0000122,1000 VIN SCULLY AVE,LOS ANGELES,FA0019271,CA,90012,OW0021606,LEVY PREMIUM FOOD SERVICE LP,RESTAURANT (0-30) SEATS LOW RISK,1630,#C74 RESERVE LEVEL VENDING,ACTIVE,PR0031735,['American (Traditional)'],False,34.073855,-118.239959,$$$,4.0,148,MR5gsp_TtlmEafRLCjaDFg
240,DA80VL3OT,08/16/2017 12:00:00 AM,DODGER STADIUM,96,A,1,ROUTINE INSPECTION,EE0000122,1000 VIN SCULLY AVE,LOS ANGELES,FA0019271,CA,90012,OW0021606,LEVY PREMIUM FOOD SERVICE LP,RESTAURANT (0-30) SEATS LOW RISK,1630,#C74 RESERVE LEVEL VENDING,ACTIVE,PR0031735,['American (Traditional)'],False,34.073855,-118.239959,$$$,4.0,148,MR5gsp_TtlmEafRLCjaDFg
241,DA80VL3OT,08/16/2017 12:00:00 AM,DODGER STADIUM,96,A,1,ROUTINE INSPECTION,EE0000122,1000 VIN SCULLY AVE,LOS ANGELES,FA0019271,CA,90012,OW0021606,LEVY PREMIUM FOOD SERVICE LP,RESTAURANT (0-30) SEATS LOW RISK,1630,#C74 RESERVE LEVEL VENDING,ACTIVE,PR0031735,['American (Traditional)'],False,34.073855,-118.239959,$$$,4.0,148,MR5gsp_TtlmEafRLCjaDFg
242,DA80VL3OT,08/16/2017 12:00:00 AM,DODGER STADIUM,96,A,1,ROUTINE INSPECTION,EE0000122,1000 VIN SCULLY AVE,LOS ANGELES,FA0019271,CA,90012,OW0021606,LEVY PREMIUM FOOD SERVICE LP,RESTAURANT (0-30) SEATS LOW RISK,1630,#C74 RESERVE LEVEL VENDING,ACTIVE,PR0031735,['American (Traditional)'],False,34.073855,-118.239959,$$$,4.0,148,MR5gsp_TtlmEafRLCjaDFg
243,DA80VL3OT,08/16/2017 12:00:00 AM,DODGER STADIUM,96,A,1,ROUTINE INSPECTION,EE0000122,1000 VIN SCULLY AVE,LOS ANGELES,FA0019271,CA,90012,OW0021606,LEVY PREMIUM FOOD SERVICE LP,RESTAURANT (0-30) SEATS LOW RISK,1630,#C74 RESERVE LEVEL VENDING,ACTIVE,PR0031735,['American (Traditional)'],False,34.073855,-118.239959,$$$,4.0,148,MR5gsp_TtlmEafRLCjaDFg
244,DAKN3ERBA,08/16/2017 12:00:00 AM,DODGER STADIUM,94,A,1,ROUTINE INSPECTION,EE0000122,1000 VIN SCULLY AVE,LOS ANGELES,FA0019271,CA,90012,OW0021606,LEVY PREMIUM FOOD SERVICE LP,RESTAURANT (0-30) SEATS MODERATE RISK,1631,FIRST BASE PANTRY,ACTIVE,PR0039471,['American (Traditional)'],False,34.073855,-118.239959,$$$,4.0,148,MR5gsp_TtlmEafRLCjaDFg
245,DAKN3ERBA,08/16/2017 12:00:00 AM,DODGER STADIUM,94,A,1,ROUTINE INSPECTION,EE0000122,1000 VIN SCULLY AVE,LOS ANGELES,FA0019271,CA,90012,OW0021606,LEVY PREMIUM FOOD SERVICE LP,RESTAURANT (0-30) SEATS MODERATE RISK,1631,FIRST BASE PANTRY,ACTIVE,PR0039471,['American (Traditional)'],False,34.073855,-118.239959,$$$,4.0,148,MR5gsp_TtlmEafRLCjaDFg
246,DAKN3ERBA,08/16/2017 12:00:00 AM,DODGER STADIUM,94,A,1,ROUTINE INSPECTION,EE0000122,1000 VIN SCULLY AVE,LOS ANGELES,FA0019271,CA,90012,OW0021606,LEVY PREMIUM FOOD SERVICE LP,RESTAURANT (0-30) SEATS MODERATE RISK,1631,FIRST BASE PANTRY,ACTIVE,PR0039471,['American (Traditional)'],False,34.073855,-118.239959,$$$,4.0,148,MR5gsp_TtlmEafRLCjaDFg
247,DAKN3ERBA,08/16/2017 12:00:00 AM,DODGER STADIUM,94,A,1,ROUTINE INSPECTION,EE0000122,1000 VIN SCULLY AVE,LOS ANGELES,FA0019271,CA,90012,OW0021606,LEVY PREMIUM FOOD SERVICE LP,RESTAURANT (0-30) SEATS MODERATE RISK,1631,FIRST BASE PANTRY,ACTIVE,PR0039471,['American (Traditional)'],False,34.073855,-118.239959,$$$,4.0,148,MR5gsp_TtlmEafRLCjaDFg
248,DAKN3ERBA,08/16/2017 12:00:00 AM,DODGER STADIUM,94,A,1,ROUTINE INSPECTION,EE0000122,1000 VIN SCULLY AVE,LOS ANGELES,FA0019271,CA,90012,OW0021606,LEVY PREMIUM FOOD SERVICE LP,RESTAURANT (0-30) SEATS MODERATE RISK,1631,FIRST BASE PANTRY,ACTIVE,PR0039471,['American (Traditional)'],False,34.073855,-118.239959,$$$,4.0,148,MR5gsp_TtlmEafRLCjaDFg
249,DA0XD0UIE,08/16/2017 12:00:00 AM,DODGER STADIUM,97,A,1,ROUTINE INSPECTION,EE0000122,1000 VIN SCULLY AVE,LOS ANGELES,FA0019271,CA,90012,OW0021606,LEVY PREMIUM FOOD SERVICE LP,RESTAURANT (0-30) SEATS LOW RISK,1630,DUGOUT CLUB - BAR,ACTIVE,PR0194099,['American (Traditional)'],False,34.073855,-118.239959,$$$,4.0,148,MR5gsp_TtlmEafRLCjaDFg
250,DA0XD0UIE,08/16/2017 12:00:00 AM,DODGER STADIUM,97,A,1,ROUTINE INSPECTION,EE0000122,1000 VIN SCULLY AVE,LOS ANGELES,FA0019271,CA,90012,OW0021606,LEVY PREMIUM FOOD SERVICE LP,RESTAURANT (0-30) SEATS LOW RISK,1630,DUGOUT CLUB - BAR,ACTIVE,PR0194099,['American (Traditional)'],False,34.073855,-118.239959,$$$,4.0,148,MR5gsp_TtlmEafRLCjaDFg
251,DA0XD0UIE,08/16/2017 12:00:00 AM,DODGER STADIUM,97,A,1,ROUTINE INSPECTION,EE0000122,1000 VIN SCULLY AVE,LOS ANGELES,FA0019271,CA,90012,OW0021606,LEVY PREMIUM FOOD SERVICE LP,RESTAURANT (0-30) SEATS LOW RISK,1630,DUGOUT CLUB - BAR,ACTIVE,PR0194099,['American (Traditional)'],False,34.073855,-118.239959,$$$,4.0,148,MR5gsp_TtlmEafRLCjaDFg
252,DA0XD0UIE,08/16/2017 12:00:00 AM,DODGER STADIUM,97,A,1,ROUTINE INSPECTION,EE0000122,1000 VIN SCULLY AVE,LOS ANGELES,FA0019271,CA,90012,OW0021606,LEVY PREMIUM FOOD SERVICE LP,RESTAURANT (0-30) SEATS LOW RISK,1630,DUGOUT CLUB - BAR,ACTIVE,PR0194099,['American (Traditional)'],False,34.073855,-118.239959,$$$,4.0,148,MR5gsp_TtlmEafRLCjaDFg
253,DA0XD0UIE,08/16/2017 12:00:00 AM,DODGER STADIUM,97,A,1,ROUTINE INSPECTION,EE0000122,1000 VIN SCULLY AVE,LOS ANGELES,FA0019271,CA,90012,OW0021606,LEVY PREMIUM FOOD SERVICE LP,RESTAURANT (0-30) SEATS LOW RISK,1630,DUGOUT CLUB - BAR,ACTIVE,PR0194099,['American (Traditional)'],False,34.073855,-118.239959,$$$,4.0,148,MR5gsp_TtlmEafRLCjaDFg
254,DADRQ5XVJ,08/16/2017 12:00:00 AM,DODGER STADIUM,96,A,1,ROUTINE INSPECTION,EE0000122,1000 VIN SCULLY AVE,LOS ANGELES,FA0019271,CA,90012,OW0021606,LEVY PREMIUM FOOD SERVICE LP,RESTAURANT (0-30) SEATS LOW RISK,1630,LEFT FIELD OVERLOOK BAR # 249,ACTIVE,PR0148281,['American (Traditional)'],False,34.073855,-118.239959,$$$,4.0,148,MR5gsp_TtlmEafRLCjaDFg
255,DADRQ5XVJ,08/16/2017 12:00:00 AM,DODGER STADIUM,96,A,1,ROUTINE INSPECTION,EE0000122,1000 VIN SCULLY AVE,LOS ANGELES,FA0019271,CA,90012,OW0021606,LEVY PREMIUM FOOD SERVICE LP,RESTAURANT (0-30) SEATS LOW RISK,1630,LEFT FIELD OVERLOOK BAR # 249,ACTIVE,PR0148281,['American (Traditional)'],False,34.073855,-118.239959,$$$,4.0,148,MR5gsp_TtlmEafRLCjaDFg
256,DADRQ5XVJ,08/16/2017 12:00:00 AM,DODGER STADIUM,96,A,1,ROUTINE INSPECTION,EE0000122,1000 VIN SCULLY AVE,LOS ANGELES,FA0019271,CA,90012,OW0021606,LEVY PREMIUM FOOD SERVICE LP,RESTAURANT (0-30) SEATS LOW RISK,1630,LEFT FIELD OVERLOOK BAR # 249,ACTIVE,PR0148281,['American (Traditional)'],False,34.073855,-118.239959,$$$,4.0,148,MR5gsp_TtlmEafRLCjaDFg
257,DADRQ5XVJ,08/16/2017 12:00:00 AM,DODGER STADIUM,96,A,1,ROUTINE INSPECTION,EE0000122,1000 VIN SCULLY AVE,LOS ANGELES,FA0019271,CA,90012,OW0021606,LEVY PREMIUM FOOD SERVICE LP,RESTAURANT (0-30) SEATS LOW RISK,1630,LEFT FIELD OVERLOOK BAR # 249,ACTIVE,PR0148281,['American (Traditional)'],False,34.073855,-118.239959,$$$,4.0,148,MR5gsp_TtlmEafRLCjaDFg
258,DADRQ5XVJ,08/16/2017 12:00:00 AM,DODGER STADIUM,96,A,1,ROUTINE INSPECTION,EE0000122,1000 VIN SCULLY AVE,LOS ANGELES,FA0019271,CA,90012,OW0021606,LEVY PREMIUM FOOD SERVICE LP,RESTAURANT (0-30) SEATS LOW RISK,1630,LEFT FIELD OVERLOOK BAR # 249,ACTIVE,PR0148281,['American (Traditional)'],False,34.073855,-118.239959,$$$,4.0,148,MR5gsp_TtlmEafRLCjaDFg
259,DA8JNA543,08/16/2017 12:00:00 AM,DODGER STADIUM,97,A,1,ROUTINE INSPECTION,EE0000122,1000 VIN SCULLY AVE,LOS ANGELES,FA0019271,CA,90012,OW0021606,LEVY PREMIUM FOOD SERVICE LP,RESTAURANT (0-30) SEATS MODERATE RISK,1631,THIRD BASE PANTRY,ACTIVE,PR0011130,['American (Traditional)'],False,34.073855,-118.239959,$$$,4.0,148,MR5gsp_TtlmEafRLCjaDFg
260,DA8JNA543,08/16/2017 12:00:00 AM,DODGER STADIUM,97,A,1,ROUTINE INSPECTION,EE0000122,1000 VIN SCULLY AVE,LOS ANGELES,FA0019271,CA,90012,OW0021606,LEVY PREMIUM FOOD SERVICE LP,RESTAURANT (0-30) SEATS MODERATE RISK,1631,THIRD BASE PANTRY,ACTIVE,PR0011130,['American (Traditional)'],False,34.073855,-118.239959,$$$,4.0,148,MR5gsp_TtlmEafRLCjaDFg
261,DA8JNA543,08/16/2017 12:00:00 AM,DODGER STADIUM,97,A,1,ROUTINE INSPECTION,EE0000122,1000 VIN SCULLY AVE,LOS ANGELES,FA0019271,CA,90012,OW0021606,LEVY PREMIUM FOOD SERVICE LP,RESTAURANT (0-30) SEATS MODERATE RISK,1631,THIRD BASE PANTRY,ACTIVE,PR0011130,['American (Traditional)'],False,34.073855,-118.239959,$$$,4.0,148,MR5gsp_TtlmEafRLCjaDFg
262,DA8JNA543,08/16/2017 12:00:00 AM,DODGER STADIUM,97,A,1,ROUTINE INSPECTION,EE0000122,1000 VIN SCULLY AVE,LOS ANGELES,FA0019271,CA,90012,OW0021606,LEVY PREMIUM FOOD SERVICE LP,RESTAURANT (0-30) SEATS MODERATE RISK,1631,THIRD BASE PANTRY,ACTIVE,PR0011130,['American (Traditional)'],False,34.073855,-118.239959,$$$,4.0,148,MR5gsp_TtlmEafRLCjaDFg
263,DA8JNA543,08/16/2017 12:00:00 AM,DODGER STADIUM,97,A,1,ROUTINE INSPECTION,EE0000122,1000 VIN SCULLY AVE,LOS ANGELES,FA0019271,CA,90012,OW0021606,LEVY PREMIUM FOOD SERVICE LP,RESTAURANT (0-30) SEATS MODERATE RISK,1631,THIRD BASE PANTRY,ACTIVE,PR0011130,['American (Traditional)'],False,34.073855,-118.239959,$$$,4.0,148,MR5gsp_TtlmEafRLCjaDFg
264,DAAO2Z0JM,08/16/2017 12:00:00 AM,DODGER STADIUM,98,A,1,ROUTINE INSPECTION,EE0000122,1000 VIN SCULLY AVE,LOS ANGELES,FA0019271,CA,90012,OW0021606,LEVY PREMIUM FOOD SERVICE LP,RESTAURANT (0-30) SEATS MODERATE RISK,1631,#204 CAMPY'S CORNER,ACTIVE,PR0048342,['American (Traditional)'],False,34.073855,-118.239959,$$$,4.0,148,MR5gsp_TtlmEafRLCjaDFg
265,DAAO2Z0JM,08/16/2017 12:00:00 AM,DODGER STADIUM,98,A,1,ROUTINE INSPECTION,EE0000122,1000 VIN SCULLY AVE,LOS ANGELES,FA0019271,CA,90012,OW0021606,LEVY PREMIUM FOOD SERVICE LP,RESTAURANT (0-30) SEATS MODERATE RISK,1631,#204 CAMPY'S CORNER,ACTIVE,PR0048342,['American (Traditional)'],False,34.073855,-118.239959,$$$,4.0,148,MR5gsp_TtlmEafRLCjaDFg
266,DAAO2Z0JM,08/16/2017 12:00:00 AM,DODGER STADIUM,98,A,1,ROUTINE INSPECTION,EE0000122,1000 VIN SCULLY AVE,LOS ANGELES,FA0019271,CA,90012,OW0021606,LEVY PREMIUM FOOD SERVICE LP,RESTAURANT (0-30) SEATS MODERATE RISK,1631,#204 CAMPY'S CORNER,ACTIVE,PR0048342,['American (Traditional)'],False,34.073855,-118.239959,$$$,4.0,148,MR5gsp_TtlmEafRLCjaDFg
267,DAAO2Z0JM,08/16/2017 12:00:00 AM,DODGER STADIUM,98,A,1,ROUTINE INSPECTION,EE0000122,1000 VIN SCULLY AVE,LOS ANGELES,FA0019271,CA,90012,OW0021606,LEVY PREMIUM FOOD SERVICE LP,RESTAURANT (0-30) SEATS MODERATE RISK,1631,#204 CAMPY'S CORNER,ACTIVE,PR0048342,['American (Traditional)'],False,34.073855,-118.239959,$$$,4.0,148,MR5gsp_TtlmEafRLCjaDFg
268,DAAO2Z0JM,08/16/2017 12:00:00 AM,DODGER STADIUM,98,A,1,ROUTINE INSPECTION,EE0000122,1000 VIN SCULLY AVE,LOS ANGELES,FA0019271,CA,90012,OW0021606,LEVY PREMIUM FOOD SERVICE LP,RESTAURANT (0-30) SEATS MODERATE RISK,1631,#204 CAMPY'S CORNER,ACTIVE,PR0048342,['American (Traditional)'],False,34.073855,-118.239959,$$$,4.0,148,MR5gsp_TtlmEafRLCjaDFg
269,DA2RF7KP0,08/16/2017 12:00:00 AM,DODGER STADIUM,96,A,1,ROUTINE INSPECTION,EE0000122,1000 VIN SCULLY AVE,LOS ANGELES,FA0019271,CA,90012,OW0021606,LEVY PREMIUM FOOD SERVICE LP,RESTAURANT (0-30) SEATS LOW RISK,1630,RIGHT FIELD OVERLOOK BAR #250,ACTIVE,PR0148277,['American (Traditional)'],False,34.073855,-118.239959,$$$,4.0,148,MR5gsp_TtlmEafRLCjaDFg
270,DA2RF7KP0,08/16/2017 12:00:00 AM,DODGER STADIUM,96,A,1,ROUTINE INSPECTION,EE0000122,1000 VIN SCULLY AVE,LOS ANGELES,FA0019271,CA,90012,OW0021606,LEVY PREMIUM FOOD SERVICE LP,RESTAURANT (0-30) SEATS LOW RISK,1630,RIGHT FIELD OVERLOOK BAR #250,ACTIVE,PR0148277,['American (Traditional)'],False,34.073855,-118.239959,$$$,4.0,148,MR5gsp_TtlmEafRLCjaDFg
271,DA2RF7KP0,08/16/2017 12:00:00 AM,DODGER STADIUM,96,A,1,ROUTINE INSPECTION,EE0000122,1000 VIN SCULLY AVE,LOS ANGELES,FA0019271,CA,90012,OW0021606,LEVY PREMIUM FOOD SERVICE LP,RESTAURANT (0-30) SEATS LOW RISK,1630,RIGHT FIELD OVERLOOK BAR #250,ACTIVE,PR0148277,['American (Traditional)'],False,34.073855,-118.239959,$$$,4.0,148,MR5gsp_TtlmEafRLCjaDFg
272,DA2RF7KP0,08/16/2017 12:00:00 AM,DODGER STADIUM,96,A,1,ROUTINE INSPECTION,EE0000122,1000 VIN SCULLY AVE,LOS ANGELES,FA0019271,CA,90012,OW0021606,LEVY PREMIUM FOOD SERVICE LP,RESTAURANT (0-30) SEATS LOW RISK,1630,RIGHT FIELD OVERLOOK BAR #250,ACTIVE,PR0148277,['American (Traditional)'],False,34.073855,-118.239959,$$$,4.0,148,MR5gsp_TtlmEafRLCjaDFg
273,DA2RF7KP0,08/16/2017 12:00:00 AM,DODGER STADIUM,96,A,1,ROUTINE INSPECTION,EE0000122,1000 VIN SCULLY AVE,LOS ANGELES,FA0019271,CA,90012,OW0021606,LEVY PREMIUM FOOD SERVICE LP,RESTAURANT (0-30) SEATS LOW RISK,1630,RIGHT FIELD OVERLOOK BAR #250,ACTIVE,PR0148277,['American (Traditional)'],False,34.073855,-118.239959,$$$,4.0,148,MR5gsp_TtlmEafRLCjaDFg
274,DAAECVHR0,08/16/2017 12:00:00 AM,DODGER STADIUM,97,A,1,ROUTINE INSPECTION,EE0000122,1000 VIN SCULLY AVE,LOS ANGELES,FA0019271,CA,90012,OW0021606,LEVY PREMIUM FOOD SERVICE LP,RESTAURANT (0-30) SEATS LOW RISK,1630,#205 MARKET PLACE HEALTHY PLATE,ACTIVE,PR0010207,['American (Traditional)'],False,34.073855,-118.239959,$$$,4.0,148,MR5gsp_TtlmEafRLCjaDFg
275,DAAECVHR0,08/16/2017 12:00:00 AM,DODGER STADIUM,97,A,1,ROUTINE INSPECTION,EE0000122,1000 VIN SCULLY AVE,LOS ANGELES,FA0019271,CA,90012,OW0021606,LEVY PREMIUM FOOD SERVICE LP,RESTAURANT (0-30) SEATS LOW RISK,1630,#205 MARKET PLACE HEALTHY PLATE,ACTIVE,PR0010207,['American (Traditional)'],False,34.073855,-118.239959,$$$,4.0,148,MR5gsp_TtlmEafRLCjaDFg
276,DAAECVHR0,08/16/2017 12:00:00 AM,DODGER STADIUM,97,A,1,ROUTINE INSPECTION,EE0000122,1000 VIN SCULLY AVE,LOS ANGELES,FA0019271,CA,90012,OW0021606,LEVY PREMIUM FOOD SERVICE LP,RESTAURANT (0-30) SEATS LOW RISK,1630,#205 MARKET PLACE HEALTHY PLATE,ACTIVE,PR0010207,['American (Traditional)'],False,34.073855,-118.239959,$$$,4.0,148,MR5gsp_TtlmEafRLCjaDFg
277,DAAECVHR0,08/16/2017 12:00:00 AM,DODGER STADIUM,97,A,1,ROUTINE INSPECTION,EE0000122,1000 VIN SCULLY AVE,LOS ANGELES,FA0019271,CA,90012,OW0021606,LEVY PREMIUM FOOD SERVICE LP,RESTAURANT (0-30) SEATS LOW RISK,1630,#205 MARKET PLACE HEALTHY PLATE,ACTIVE,PR0010207,['American (Traditional)'],False,34.073855,-118.239959,$$$,4.0,148,MR5gsp_TtlmEafRLCjaDFg
278,DAAECVHR0,08/16/2017 12:00:00 AM,DODGER STADIUM,97,A,1,ROUTINE INSPECTION,EE0000122,1000 VIN SCULLY AVE,LOS ANGELES,FA0019271,CA,90012,OW0021606,LEVY PREMIUM FOOD SERVICE LP,RESTAURANT (0-30) SEATS LOW RISK,1630,#205 MARKET PLACE HEALTHY PLATE,ACTIVE,PR0010207,['American (Traditional)'],False,34.073855,-118.239959,$$$,4.0,148,MR5gsp_TtlmEafRLCjaDFg
279,DA0BEMZAE,08/16/2017 12:00:00 AM,DODGER STADIUM,96,A,1,ROUTINE INSPECTION,EE0000122,1000 VIN SCULLY AVE,LOS ANGELES,FA0019271,CA,90012,OW0021606,LEVY PREMIUM FOOD SERVICE LP,RESTAURANT (0-30) SEATS LOW RISK,1630,#C43 LOGE LEVEL VENDING,ACTIVE,PR0027633,['American (Traditional)'],False,34.073855,-118.239959,$$$,4.0,148,MR5gsp_TtlmEafRLCjaDFg
280,DA0BEMZAE,08/16/2017 12:00:00 AM,DODGER STADIUM,96,A,1,ROUTINE INSPECTION,EE0000122,1000 VIN SCULLY AVE,LOS ANGELES,FA0019271,CA,90012,OW0021606,LEVY PREMIUM FOOD SERVICE LP,RESTAURANT (0-30) SEATS LOW RISK,1630,#C43 LOGE LEVEL VENDING,ACTIVE,PR0027633,['American (Traditional)'],False,34.073855,-118.239959,$$$,4.0,148,MR5gsp_TtlmEafRLCjaDFg
281,DA0BEMZAE,08/16/2017 12:00:00 AM,DODGER STADIUM,96,A,1,ROUTINE INSPECTION,EE0000122,1000 VIN SCULLY AVE,LOS ANGELES,FA0019271,CA,90012,OW0021606,LEVY PREMIUM FOOD SERVICE LP,RESTAURANT (0-30) SEATS LOW RISK,1630,#C43 LOGE LEVEL VENDING,ACTIVE,PR0027633,['American (Traditional)'],False,34.073855,-118.239959,$$$,4.0,148,MR5gsp_TtlmEafRLCjaDFg
282,DA0BEMZAE,08/16/2017 12:00:00 AM,DODGER STADIUM,96,A,1,ROUTINE INSPECTION,EE0000122,1000 VIN SCULLY AVE,LOS ANGELES,FA0019271,CA,90012,OW0021606,LEVY PREMIUM FOOD SERVICE LP,RESTAURANT (0-30) SEATS LOW RISK,1630,#C43 LOGE LEVEL VENDING,ACTIVE,PR0027633,['American (Traditional)'],False,34.073855,-118.239959,$$$,4.0,148,MR5gsp_TtlmEafRLCjaDFg
283,DA0BEMZAE,08/16/2017 12:00:00 AM,DODGER STADIUM,96,A,1,ROUTINE INSPECTION,EE0000122,1000 VIN SCULLY AVE,LOS ANGELES,FA0019271,CA,90012,OW0021606,LEVY PREMIUM FOOD SERVICE LP,RESTAURANT (0-30) SEATS LOW RISK,1630,#C43 LOGE LEVEL VENDING,ACTIVE,PR0027633,['American (Traditional)'],False,34.073855,-118.239959,$$$,4.0,148,MR5gsp_TtlmEafRLCjaDFg
284,DANCKRQOS,08/16/2017 12:00:00 AM,DODGER STADIUM,98,A,1,ROUTINE INSPECTION,EE0000122,1000 VIN SCULLY AVE,LOS ANGELES,FA0019271,CA,90012,OW0021606,LEVY PREMIUM FOOD SERVICE LP,RESTAURANT (31-60) SEATS LOW RISK,1633,DUGOUT CLUB MARTINI LOUNGE,ACTIVE,PR0014364,['American (Traditional)'],False,34.073855,-118.239959,$$$,4.0,148,MR5gsp_TtlmEafRLCjaDFg
